{
  "version": 0.6,
  "generator": "Overpass API",
  "osm3s": {
    "timestamp_osm_base": "2014-02-12T10:26:02Z",
    "copyright": "The data included in this document is from www.openstreetmap.org. The data is made available under ODbL."
  },
  "elements": [

{
  "type": "node",
  "id": 135296,
  "lat": 45.1973809,
  "lon": 5.7762394,
  "tags": {
    "bus": "yes",
    "highway": "bus_stop",
    "name": "Universités - IUT - UFRAPS",
    "public_transport": "stop_position",
    "wheelchair": "yes"
  }
},
{
  "type": "node",
  "id": 136221,
  "lat": 45.1845898,
  "lon": 5.7317460,
  "tags": {
    "name": "Chavant",
    "public_transport": "stop_position",
    "railway": "tram_stop",
    "tram": "yes",
    "wheelchair": "yes"
  }
},
{
  "type": "node",
  "id": 136597,
  "lat": 45.2067432,
  "lon": 5.6627922,
  "tags": {
    "bus": "yes",
    "highway": "bus_stop",
    "name": "Place de la Libération",
    "public_transport": "stop_position",
    "wheelchair": "yes"
  }
},
{
  "type": "node",
  "id": 137374,
  "lat": 45.1611876,
  "lon": 5.6965296,
  "tags": {
    "bus": "yes",
    "highway": "bus_stop",
    "name": "Seyssins - Rondeau",
    "public_transport": "stop_position",
    "wheelchair": "yes"
  }
},
{
  "type": "node",
  "id": 137909,
  "lat": 45.2272814,
  "lon": 5.7588083,
  "tags": {
    "bus": "yes",
    "highway": "bus_stop",
    "name": "Batonnière",
    "public_transport": "stop_position"
  }
},
{
  "type": "node",
  "id": 138720,
  "lat": 45.2646809,
  "lon": 5.7742597,
  "tags": {
    "bus": "yes",
    "highway": "bus_stop",
    "name": "Le Mollard",
    "network": "Transisère",
    "public_transport": "stop_position"
  }
},
{
  "type": "node",
  "id": 138757,
  "lat": 45.2899750,
  "lon": 5.7670128,
  "tags": {
    "bus": "yes",
    "ele": "1326",
    "highway": "bus_stop",
    "mountain_pass": "yes",
    "name": "Col de Porte",
    "network": "Transisère",
    "public_transport": "stop_position",
    "wikipedia": "fr:Col de Porte (Chartreuse)"
  }
},
{
  "type": "node",
  "id": 866063,
  "lat": 45.1782941,
  "lon": 5.7105287,
  "tags": {
    "bus": "yes",
    "highway": "bus_stop",
    "name": "Champs-Elysées",
    "public_transport": "stop_position",
    "wheelchair": "yes"
  }
},
{
  "type": "node",
  "id": 1106642,
  "lat": 45.2163858,
  "lon": 5.7538299,
  "tags": {
    "bus": "yes",
    "highway": "bus_stop",
    "name": "Monument",
    "public_transport": "stop_position"
  }
},
{
  "type": "node",
  "id": 14566552,
  "lat": 45.1790245,
  "lon": 5.7549975,
  "tags": {
    "bus": "yes",
    "highway": "bus_stop",
    "name": "Édouard Vaillant",
    "public_transport": "stop_position"
  }
},
{
  "type": "node",
  "id": 21264092,
  "lat": 45.1747984,
  "lon": 5.7138265,
  "tags": {
    "bus": "yes",
    "highway": "bus_stop",
    "name": "Alliés - Anatole France",
    "public_transport": "stop_position",
    "wheelchair": "yes"
  }
},
{
  "type": "node",
  "id": 21669804,
  "lat": 45.1907451,
  "lon": 5.7251966,
  "tags": {
    "bus": "yes",
    "highway": "bus_stop",
    "name": "Trois Dauphins",
    "public_transport": "stop_position",
    "source": "v2 ; cadastre-dgi-fr source : Direction Générale des Impôts - Cadastre ; mise à jour : 2009",
    "wheelchair": "yes"
  }
},
{
  "type": "node",
  "id": 21669811,
  "lat": 45.1905739,
  "lon": 5.7245991,
  "tags": {
    "bus": "yes",
    "highway": "bus_stop",
    "name": "Trois Dauphins",
    "public_transport": "stop_position",
    "source": "v2 ; cadastre-dgi-fr source : Direction Générale des Impôts - Cadastre ; mise à jour : 2009",
    "wheelchair": "limited"
  }
},
{
  "type": "node",
  "id": 26361365,
  "lat": 45.1452875,
  "lon": 5.6768214,
  "tags": {
    "bus": "yes",
    "highway": "bus_stop",
    "name": "Cimetière des Garlettes",
    "public_transport": "stop_position",
    "wheelchair": "no"
  }
},
{
  "type": "node",
  "id": 26514427,
  "lat": 45.1868233,
  "lon": 5.7565727,
  "tags": {
    "name": "Neyrpic - Belledonne",
    "public_transport": "stop_position",
    "railway": "tram_stop",
    "tram": "yes",
    "wheelchair": "yes"
  }
},
{
  "type": "node",
  "id": 26514464,
  "lat": 45.1910807,
  "lon": 5.7587284,
  "tags": {
    "name": "Hector Berlioz - Universités",
    "public_transport": "stop_position",
    "railway": "tram_stop",
    "source": "cadastre-dgi-fr source : Direction Générale des Impôts - Cadastre. Mise à jour : 2009",
    "tram": "yes",
    "wheelchair": "yes"
  }
},
{
  "type": "node",
  "id": 26514598,
  "lat": 45.1882626,
  "lon": 5.7315163,
  "tags": {
    "name": "Verdun-Préfecture",
    "public_transport": "stop_position",
    "railway": "tram_stop",
    "tram": "yes",
    "wheelchair": "yes"
  }
},
{
  "type": "node",
  "id": 26561617,
  "lat": 45.1901303,
  "lon": 5.7150797,
  "tags": {
    "name": "Gares",
    "public_transport": "stop_position",
    "railway": "tram_stop",
    "tram": "yes",
    "wheelchair": "yes"
  }
},
{
  "type": "node",
  "id": 26562299,
  "lat": 45.1972520,
  "lon": 5.7367666,
  "tags": {
    "name": "Île Verte",
    "public_transport": "stop_position",
    "railway": "tram_stop",
    "tram": "yes",
    "wheelchair": "yes"
  }
},
{
  "type": "node",
  "id": 26562305,
  "lat": 45.2003255,
  "lon": 5.7455409,
  "tags": {
    "name": "Michallon",
    "public_transport": "stop_position",
    "railway": "tram_stop",
    "tram": "yes",
    "wheelchair": "yes"
  }
},
{
  "type": "node",
  "id": 26563271,
  "lat": 45.1922820,
  "lon": 5.7578672,
  "tags": {
    "name": "Les Taillées - Universités",
    "public_transport": "stop_position",
    "railway": "tram_stop",
    "tram": "yes",
    "wheelchair": "yes"
  }
},
{
  "type": "node",
  "id": 26563275,
  "lat": 45.1923179,
  "lon": 5.7645939,
  "tags": {
    "name": "Gabriel Fauré",
    "public_transport": "stop_position",
    "railway": "tram_stop",
    "tram": "yes",
    "wheelchair": "yes"
  }
},
{
  "type": "node",
  "id": 26563282,
  "lat": 45.1923234,
  "lon": 5.7709570,
  "tags": {
    "name": "Bibliothèques Universitaires",
    "old_name": "Universités",
    "public_transport": "stop_position",
    "railway": "tram_stop",
    "tram": "yes",
    "wheelchair": "yes"
  }
},
{
  "type": "node",
  "id": 26681230,
  "lat": 45.1177795,
  "lon": 5.7828135,
  "tags": {
    "bus": "yes",
    "highway": "bus_stop",
    "name": "Brié - École",
    "network": "TAG",
    "public_transport": "stop_position"
  }
},
{
  "type": "node",
  "id": 26681292,
  "lat": 45.0917150,
  "lon": 5.7766244,
  "tags": {
    "bus": "yes",
    "highway": "bus_stop",
    "name": "Montchaboud Croisement",
    "network": "TAG",
    "public_transport": "stop_position"
  }
},
{
  "type": "node",
  "id": 26681295,
  "lat": 45.0915686,
  "lon": 5.7769179,
  "tags": {
    "bus": "yes",
    "highway": "bus_stop",
    "name": "Montchaboud Croisement",
    "network": "TAG",
    "public_transport": "stop_position"
  }
},
{
  "type": "node",
  "id": 35180837,
  "lat": 45.2186934,
  "lon": 5.7829194,
  "tags": {
    "bus": "yes",
    "highway": "bus_stop",
    "name": "Bérivère",
    "network": "TAG",
    "public_transport": "stop_position"
  }
},
{
  "type": "node",
  "id": 35180840,
  "lat": 45.2194156,
  "lon": 5.7861022,
  "tags": {
    "bus": "yes",
    "highway": "bus_stop",
    "name": "Saint-Mury",
    "public_transport": "stop_position"
  }
},
{
  "type": "node",
  "id": 40931791,
  "lat": 45.1137447,
  "lon": 5.7286462,
  "tags": {
    "bus": "yes",
    "highway": "bus_stop",
    "name": "Place du Laca",
    "network": "TAG",
    "public_transport": "stop_position"
  }
},
{
  "type": "node",
  "id": 41113374,
  "lat": 45.1402326,
  "lon": 5.7836365,
  "tags": {
    "bus": "yes",
    "highway": "bus_stop",
    "name": "Le Chollet",
    "public_transport": "stop_position"
  }
},
{
  "type": "node",
  "id": 41113438,
  "lat": 45.1399076,
  "lon": 5.7761132,
  "tags": {
    "bus": "yes",
    "highway": "bus_stop",
    "name": "Les Angonnes",
    "public_transport": "stop_position",
    "wheelchair": "yes"
  }
},
{
  "type": "node",
  "id": 51919724,
  "lat": 45.1662743,
  "lon": 5.7311890,
  "tags": {
    "name": "La Bruyère",
    "public_transport": "stop_position",
    "railway": "tram_stop",
    "tram": "yes",
    "wheelchair": "yes"
  }
},
{
  "type": "node",
  "id": 51919743,
  "lat": 45.1590567,
  "lon": 5.7322635,
  "tags": {
    "name": "Grand'place",
    "public_transport": "stop_position",
    "railway": "tram_stop",
    "tram": "yes",
    "wheelchair": "yes"
  }
},
{
  "type": "node",
  "id": 55388379,
  "lat": 45.1950154,
  "lon": 5.7112228,
  "tags": {
    "name": "Cité Internationale",
    "public_transport": "stop_position",
    "railway": "tram_stop",
    "tram": "yes",
    "wheelchair": "yes"
  }
},
{
  "type": "node",
  "id": 55388395,
  "lat": 45.1911850,
  "lon": 5.7117481,
  "tags": {
    "name": "Palais de Justice",
    "public_transport": "stop_position",
    "railway": "tram_stop",
    "tram": "yes",
    "wheelchair": "yes"
  }
},
{
  "type": "node",
  "id": 59358941,
  "lat": 45.2746549,
  "lon": 5.6064653,
  "tags": {
    "bus": "yes",
    "highway": "bus_stop",
    "name": "Le Château",
    "public_transport": "stop_position",
    "wheelchair": "no"
  }
},
{
  "type": "node",
  "id": 59358979,
  "lat": 45.2759393,
  "lon": 5.6100782,
  "tags": {
    "bus": "yes",
    "highway": "bus_stop",
    "name": "Les Marronniers",
    "public_transport": "stop_position",
    "wheelchair": "no"
  }
},
{
  "type": "node",
  "id": 59359052,
  "lat": 45.2765710,
  "lon": 5.6123521,
  "tags": {
    "bus": "yes",
    "highway": "bus_stop",
    "name": "Petit Châtelard",
    "public_transport": "stop_position",
    "wheelchair": "no"
  }
},
{
  "type": "node",
  "id": 59359056,
  "lat": 45.2760862,
  "lon": 5.6121496,
  "tags": {
    "bus": "yes",
    "highway": "bus_stop",
    "name": "Petit Châtelard",
    "public_transport": "stop_position",
    "wheelchair": "no"
  }
},
{
  "type": "node",
  "id": 59359136,
  "lat": 45.2748204,
  "lon": 5.6126196,
  "tags": {
    "bus": "yes",
    "highway": "bus_stop",
    "name": "Le Béryl",
    "public_transport": "stop_position",
    "wheelchair": "no"
  }
},
{
  "type": "node",
  "id": 59359164,
  "lat": 45.2730917,
  "lon": 5.6127615,
  "tags": {
    "bus": "yes",
    "highway": "bus_stop",
    "name": "Mairie",
    "public_transport": "stop_position",
    "wheelchair": "no"
  }
},
{
  "type": "node",
  "id": 103925967,
  "lat": 45.0867942,
  "lon": 5.6831706,
  "tags": {
    "bus": "yes",
    "highway": "bus_stop",
    "name": "Varces - République",
    "public_transport": "stop_position",
    "wheelchair": "yes"
  }
},
{
  "type": "node",
  "id": 103925968,
  "lat": 45.0863753,
  "lon": 5.6829499,
  "tags": {
    "bus": "yes",
    "highway": "bus_stop",
    "name": "Varces - République",
    "public_transport": "stop_position",
    "wheelchair": "yes"
  }
},
{
  "type": "node",
  "id": 104003299,
  "lat": 45.0708227,
  "lon": 5.6953510,
  "tags": {
    "bus": "yes",
    "highway": "bus_stop",
    "name": "Rue de la Sacristie",
    "public_transport": "stop_position"
  }
},
{
  "type": "node",
  "id": 249842482,
  "lat": 45.1309164,
  "lon": 5.8190117,
  "tags": {
    "bus": "yes",
    "highway": "bus_stop",
    "name": "Les Alberges",
    "public_transport": "stop_position"
  }
},
{
  "type": "node",
  "id": 250529114,
  "lat": 45.1794122,
  "lon": 5.7551694,
  "tags": {
    "name": "Édouard Vaillant",
    "public_transport": "stop_position",
    "railway": "tram_stop",
    "tram": "yes",
    "wheelchair": "yes"
  }
},
{
  "type": "node",
  "id": 256755858,
  "lat": 45.1751310,
  "lon": 5.7572846,
  "tags": {
    "name": "Parc Jo Blanchon",
    "public_transport": "stop_position",
    "railway": "tram_stop",
    "tram": "yes",
    "wheelchair": "yes"
  }
},
{
  "type": "node",
  "id": 256755859,
  "lat": 45.1721503,
  "lon": 5.7577716,
  "tags": {
    "name": "Étienne Grappe",
    "public_transport": "stop_position",
    "railway": "tram_stop",
    "ref": "1",
    "tram": "yes",
    "wheelchair": "yes"
  }
},
{
  "type": "node",
  "id": 257198085,
  "lat": 45.1802059,
  "lon": 5.6964593,
  "tags": {
    "name": "Seyssinet Pariset - Hôtel de Ville",
    "public_transport": "stop_position",
    "railway": "tram_stop",
    "tram": "yes",
    "wheelchair": "yes"
  }
},
{
  "type": "node",
  "id": 257448906,
  "lat": 45.0759563,
  "lon": 5.7742044,
  "tags": {
    "bench": "no",
    "bus": "yes",
    "highway": "bus_stop",
    "name": "Tunnel Château",
    "public_transport": "stop_position",
    "shelter": "no"
  }
},
{
  "type": "node",
  "id": 257448984,
  "lat": 45.0938442,
  "lon": 5.7932338,
  "tags": {
    "bench": "yes",
    "bus": "yes",
    "highway": "bus_stop",
    "name": "Le Plâtre",
    "network": "TAG",
    "public_transport": "stop_position"
  }
},
{
  "type": "node",
  "id": 258670908,
  "lat": 45.2341715,
  "lon": 5.7511126,
  "tags": {
    "bus": "yes",
    "highway": "bus_stop",
    "name": "Col de Vence",
    "public_transport": "stop_position"
  }
},
{
  "type": "node",
  "id": 258682752,
  "lat": 45.2546871,
  "lon": 5.7712619,
  "tags": {
    "bus": "yes",
    "highway": "bus_stop",
    "name": "Le Gouillat - Carrefour Saint Eynard",
    "network": "Transisère",
    "public_transport": "stop_position"
  }
},
{
  "type": "node",
  "id": 258689886,
  "lat": 45.1942185,
  "lon": 5.7252469,
  "tags": {
    "bus": "yes",
    "highway": "bus_stop",
    "name": "Maurice Gignoux",
    "network": "TAG",
    "public_transport": "stop_position"
  }
},
{
  "type": "node",
  "id": 259810384,
  "lat": 45.1844865,
  "lon": 5.7542885,
  "tags": {
    "name": "Maison Communale",
    "public_transport": "stop_position",
    "railway": "tram_stop",
    "tram": "yes",
    "wheelchair": "yes"
  }
},
{
  "type": "node",
  "id": 259956808,
  "lat": 45.1789609,
  "lon": 5.7318393,
  "tags": {
    "name": "Mounier",
    "public_transport": "stop_position",
    "railway": "tram_stop",
    "tram": "yes",
    "wheelchair": "yes"
  }
},
{
  "type": "node",
  "id": 259956811,
  "lat": 45.1734970,
  "lon": 5.7320281,
  "tags": {
    "name": "MC2 - Maison de la Culture",
    "public_transport": "stop_position",
    "railway": "tram_stop",
    "tram": "yes",
    "wheelchair": "yes"
  }
},
{
  "type": "node",
  "id": 262721766,
  "lat": 45.1752531,
  "lon": 5.7949350,
  "tags": {
    "bus": "yes",
    "highway": "bus_stop",
    "name": "La Faurie",
    "public_transport": "stop_position"
  }
},
{
  "type": "node",
  "id": 270132156,
  "lat": 45.1716836,
  "lon": 5.8048240,
  "tags": {
    "bus": "yes",
    "highway": "bus_stop",
    "name": "Venon Mairie",
    "public_transport": "stop_position"
  }
},
{
  "type": "node",
  "id": 270165556,
  "lat": 45.1970418,
  "lon": 5.6725881,
  "tags": {
    "bus": "yes",
    "highway": "bus_stop",
    "name": "Fontaine - La Poya",
    "public_transport": "stop_position",
    "wheelchair": "yes"
  }
},
{
  "type": "node",
  "id": 277364392,
  "lat": 45.2071269,
  "lon": 5.7582983,
  "tags": {
    "bus": "yes",
    "highway": "bus_stop",
    "name": "Champ Rochas",
    "public_transport": "stop_position"
  }
},
{
  "type": "node",
  "id": 280969997,
  "lat": 45.1424083,
  "lon": 5.7153742,
  "tags": {
    "name": "Auguste Delaune",
    "public_transport": "stop_position",
    "railway": "tram_stop",
    "tram": "yes",
    "wheelchair": "yes"
  }
},
{
  "type": "node",
  "id": 280970364,
  "lat": 45.1384181,
  "lon": 5.7131656,
  "tags": {
    "name": "Denis Papin",
    "public_transport": "stop_position",
    "railway": "tram_stop",
    "tram": "yes",
    "wheelchair": "yes"
  }
},
{
  "type": "node",
  "id": 280970365,
  "lat": 45.1456594,
  "lon": 5.7171305,
  "tags": {
    "name": "Marie Curie",
    "public_transport": "stop_position",
    "railway": "tram_stop",
    "tram": "yes",
    "wheelchair": "yes"
  }
},
{
  "type": "node",
  "id": 280970367,
  "lat": 45.1487503,
  "lon": 5.7179901,
  "tags": {
    "name": "La Rampe - Centre-Ville",
    "public_transport": "stop_position",
    "railway": "tram_stop",
    "tram": "yes",
    "wheelchair": "yes"
  }
},
{
  "type": "node",
  "id": 280970370,
  "lat": 45.1559761,
  "lon": 5.7192359,
  "tags": {
    "name": "Essarts - La Butte",
    "public_transport": "stop_position",
    "railway": "tram_stop",
    "tram": "yes",
    "wheelchair": "yes"
  }
},
{
  "type": "node",
  "id": 280970380,
  "lat": 45.1569356,
  "lon": 5.7278307,
  "tags": {
    "name": "Les Granges",
    "public_transport": "stop_position",
    "railway": "tram_stop",
    "source": "v2 ; cadastre-dgi-fr source : Direction Générale des Impôts - Cadastre ; mise à jour : 2009",
    "tram": "yes",
    "wheelchair": "yes"
  }
},
{
  "type": "node",
  "id": 280970383,
  "lat": 45.1571811,
  "lon": 5.7330301,
  "tags": {
    "name": "Pôle Sud - Alpexpo",
    "public_transport": "stop_position",
    "railway": "tram_stop",
    "tram": "yes",
    "wheelchair": "yes"
  }
},
{
  "type": "node",
  "id": 280981537,
  "lat": 45.1854508,
  "lon": 5.7856043,
  "tags": {
    "name": "Gières - Gare - Universités",
    "public_transport": "stop_position",
    "railway": "tram_stop",
    "wheelchair": "yes"
  }
},
{
  "type": "node",
  "id": 280981820,
  "lat": 45.1846933,
  "lon": 5.7791564,
  "tags": {
    "name": "Mayencin - Champ Roman",
    "public_transport": "stop_position",
    "railway": "tram_stop",
    "wheelchair": "yes"
  }
},
{
  "type": "node",
  "id": 280981821,
  "lat": 45.1891180,
  "lon": 5.7744482,
  "tags": {
    "name": "Condillac - Universités",
    "public_transport": "stop_position",
    "railway": "tram_stop",
    "tram": "yes",
    "wheelchair": "yes"
  }
},
{
  "type": "node",
  "id": 289162296,
  "lat": 45.2181243,
  "lon": 5.6534337,
  "tags": {
    "bus": "yes",
    "highway": "bus_stop",
    "name": "Les Chênes",
    "public_transport": "stop_position"
  }
},
{
  "type": "node",
  "id": 290063178,
  "lat": 45.1823331,
  "lon": 5.7281405,
  "tags": {
    "name": "Gustave Rivet",
    "public_transport": "stop_position",
    "railway": "tram_stop",
    "tram": "yes",
    "wheelchair": "yes"
  }
},
{
  "type": "node",
  "id": 290063230,
  "lat": 45.1807999,
  "lon": 5.7225636,
  "tags": {
    "name": "Foch - Férrié",
    "public_transport": "stop_position",
    "railway": "tram_stop",
    "tram": "yes",
    "wheelchair": "yes"
  }
},
{
  "type": "node",
  "id": 290063653,
  "lat": 45.2006102,
  "lon": 5.7412319,
  "tags": {
    "name": "La Tronche - Hôpital",
    "public_transport": "stop_position",
    "railway": "tram_stop",
    "tram": "yes",
    "wheelchair": "yes"
  }
},
{
  "type": "node",
  "id": 300797430,
  "lat": 45.2096847,
  "lon": 5.7527449,
  "tags": {
    "bus": "yes",
    "highway": "bus_stop",
    "name": "Corenc - Mairie",
    "public_transport": "stop_position"
  }
},
{
  "type": "node",
  "id": 312167460,
  "lat": 45.1216584,
  "lon": 5.7850004,
  "tags": {
    "bus": "yes",
    "highway": "bus_stop",
    "name": "Les Métraux",
    "network": "TAG",
    "public_transport": "stop_position"
  }
},
{
  "type": "node",
  "id": 312167844,
  "lat": 45.1385917,
  "lon": 5.7735864,
  "tags": {
    "bus": "yes",
    "highway": "bus_stop",
    "name": "Beaulieu",
    "public_transport": "stop_position"
  }
},
{
  "type": "node",
  "id": 312571547,
  "lat": 45.1576072,
  "lon": 5.6898056,
  "tags": {
    "bus": "no",
    "highway": "bus_stop",
    "name": "Le Bournet",
    "public_transport": "stop_position",
    "wheelchair": "yes"
  }
},
{
  "type": "node",
  "id": 316471568,
  "lat": 45.1938623,
  "lon": 5.6801918,
  "tags": {
    "name": "Charles Michels",
    "public_transport": "stop_position",
    "railway": "tram_stop",
    "tram": "yes",
    "wheelchair": "yes"
  }
},
{
  "type": "node",
  "id": 316487927,
  "lat": 45.1970795,
  "lon": 5.6723380,
  "tags": {
    "name": "Fontaine - La Poya",
    "public_transport": "stop_position",
    "railway": "tram_stop",
    "tram": "yes",
    "wheelchair": "yes"
  }
},
{
  "type": "node",
  "id": 319591219,
  "lat": 45.2010123,
  "lon": 5.7416187,
  "tags": {
    "bus": "yes",
    "highway": "bus_stop",
    "name": "La Tronche - Hôpital",
    "public_transport": "stop_position",
    "wheelchair": "no"
  }
},
{
  "type": "node",
  "id": 331701743,
  "lat": 45.0391323,
  "lon": 5.6611454,
  "tags": {
    "bus": "yes",
    "highway": "bus_stop",
    "name": "La Grange",
    "public_transport": "stop_position",
    "wheelchair": "no"
  }
},
{
  "type": "node",
  "id": 331960788,
  "lat": 44.9969189,
  "lon": 5.6028072,
  "tags": {
    "bus": "yes",
    "highway": "bus_stop",
    "name": "L'Arzelier",
    "network": "TAG",
    "public_transport": "stop_position"
  }
},
{
  "type": "node",
  "id": 345171258,
  "lat": 45.0704454,
  "lon": 5.6506380,
  "tags": {
    "highway": "bus_stop",
    "name": "La Garde",
    "public_transport": "stop_position"
  }
},
{
  "type": "node",
  "id": 349267079,
  "lat": 45.1923184,
  "lon": 5.7709116,
  "tags": {
    "name": "Bibliothèques Universitaires",
    "old_name": "Universités",
    "public_transport": "stop_position",
    "railway": "tram_stop",
    "tram": "yes",
    "wheelchair": "yes"
  }
},
{
  "type": "node",
  "id": 349267234,
  "lat": 45.1846606,
  "lon": 5.7790805,
  "tags": {
    "name": "Mayencin - Champ Roman",
    "public_transport": "stop_position",
    "railway": "tram_stop",
    "source": "cadastre-dgi-fr source : Direction Générale des Impôts - Cadastre. Mise à jour : 2009",
    "wheelchair": "yes"
  }
},
{
  "type": "node",
  "id": 349326890,
  "lat": 45.1721341,
  "lon": 5.7577966,
  "tags": {
    "name": "Étienne Grappe",
    "public_transport": "stop_position",
    "railway": "tram_stop",
    "ref": "2",
    "source": "cadastre-dgi-fr source : Direction Générale des Impôts - Cadastre. Mise à jour : 2009",
    "tram": "yes",
    "wheelchair": "yes"
  }
},
{
  "type": "node",
  "id": 349326994,
  "lat": 45.1751416,
  "lon": 5.7573176,
  "tags": {
    "name": "Parc Jo Blanchon",
    "public_transport": "stop_position",
    "railway": "tram_stop",
    "tram": "yes",
    "wheelchair": "yes"
  }
},
{
  "type": "node",
  "id": 349327011,
  "lat": 45.1794184,
  "lon": 5.7552044,
  "tags": {
    "name": "Édouard Vaillant",
    "public_transport": "stop_position",
    "railway": "tram_stop",
    "tram": "yes",
    "wheelchair": "yes"
  }
},
{
  "type": "node",
  "id": 352957604,
  "lat": 45.1923045,
  "lon": 5.7578830,
  "tags": {
    "name": "Les Taillées - Universités",
    "public_transport": "stop_position",
    "railway": "tram_stop",
    "tram": "yes",
    "wheelchair": "yes"
  }
},
{
  "type": "node",
  "id": 352962923,
  "lat": 45.1867322,
  "lon": 5.7568569,
  "tags": {
    "name": "Neyrpic - Belledonne",
    "public_transport": "stop_position",
    "railway": "tram_stop",
    "source": "cadastre-dgi-fr source : Direction Générale des Impôts - Cadastre. Mise à jour : 2009",
    "tram": "yes",
    "wheelchair": "yes"
  }
},
{
  "type": "node",
  "id": 352963135,
  "lat": 45.1910766,
  "lon": 5.7587716,
  "tags": {
    "name": "Hector Berlioz - Universités",
    "public_transport": "stop_position",
    "railway": "tram_stop",
    "source": "cadastre-dgi-fr source : Direction Générale des Impôts - Cadastre. Mise à jour : 2009",
    "tram": "yes",
    "wheelchair": "yes"
  }
},
{
  "type": "node",
  "id": 369808348,
  "lat": 45.1087746,
  "lon": 5.6719443,
  "tags": {
    "bus": "yes",
    "highway": "bus_stop",
    "name": "Bel Horizon",
    "public_transport": "stop_position"
  }
},
{
  "type": "node",
  "id": 369809008,
  "lat": 45.1102387,
  "lon": 5.6654800,
  "tags": {
    "bus": "yes",
    "highway": "bus_stop",
    "name": "La Chateraie",
    "public_transport": "stop_position"
  }
},
{
  "type": "node",
  "id": 369809032,
  "lat": 45.1120199,
  "lon": 5.6655020,
  "tags": {
    "bus": "yes",
    "highway": "bus_stop",
    "name": "Bellevue",
    "public_transport": "stop_position"
  }
},
{
  "type": "node",
  "id": 372746162,
  "lat": 45.1882853,
  "lon": 5.7317145,
  "tags": {
    "bus": "yes",
    "highway": "bus_stop",
    "name": "Verdun-Préfecture",
    "public_transport": "stop_position",
    "source": "v2 ; cadastre-dgi-fr source : Direction Générale des Impôts - Cadastre ; mise à jour : 2009",
    "wheelchair": "yes"
  }
},
{
  "type": "node",
  "id": 386005274,
  "lat": 45.2287153,
  "lon": 5.7847699,
  "tags": {
    "bus": "yes",
    "highway": "bus_stop",
    "name": "Gué du Boutet",
    "public_transport": "stop_position"
  }
},
{
  "type": "node",
  "id": 403348647,
  "lat": 45.1883865,
  "lon": 5.7138126,
  "tags": {
    "name": "Saint-Bruno",
    "public_transport": "stop_position",
    "railway": "tram_stop",
    "tram": "yes",
    "wheelchair": "yes"
  }
},
{
  "type": "node",
  "id": 424072777,
  "lat": 45.1855015,
  "lon": 5.7853637,
  "tags": {
    "highway": "bus_stop",
    "name": "Gare - Universités \"Tramway\"",
    "public_transport": "stop_position",
    "wheelchair": "yes"
  }
},
{
  "type": "node",
  "id": 445109990,
  "lat": 45.1803015,
  "lon": 5.7156541,
  "tags": {
    "name": "Vallier-Jaurès",
    "public_transport": "stop_position",
    "railway": "tram_stop",
    "tram": "yes",
    "wheelchair": "yes"
  }
},
{
  "type": "node",
  "id": 445109994,
  "lat": 45.1801320,
  "lon": 5.7107751,
  "tags": {
    "name": "Vallier - Docteur Calmette",
    "public_transport": "stop_position",
    "railway": "tram_stop",
    "tram": "yes",
    "wheelchair": "yes"
  }
},
{
  "type": "node",
  "id": 445109996,
  "lat": 45.1800660,
  "lon": 5.7062406,
  "tags": {
    "bus": "yes",
    "name": "Vallier - Catane",
    "public_transport": "stop_position",
    "railway": "tram_stop",
    "wheelchair": "yes"
  }
},
{
  "type": "node",
  "id": 445110024,
  "lat": 45.1764630,
  "lon": 5.6942673,
  "tags": {
    "name": "Fauconnière",
    "public_transport": "stop_position",
    "railway": "tram_stop",
    "tram": "yes",
    "wheelchair": "yes"
  }
},
{
  "type": "node",
  "id": 445110038,
  "lat": 45.1721384,
  "lon": 5.6942048,
  "tags": {
    "name": "Grand Pré",
    "public_transport": "stop_position",
    "railway": "tram_stop",
    "tram": "yes",
    "wheelchair": "yes"
  }
},
{
  "type": "node",
  "id": 445110050,
  "lat": 45.1676364,
  "lon": 5.6942941,
  "tags": {
    "name": "Mas des Iles",
    "public_transport": "stop_position",
    "railway": "tram_stop",
    "tram": "yes",
    "wheelchair": "yes"
  }
},
{
  "type": "node",
  "id": 445110072,
  "lat": 45.1663513,
  "lon": 5.6905138,
  "tags": {
    "bus": "no",
    "name": "Seyssins - Le Prisme",
    "public_transport": "stop_position",
    "railway": "tram_stop",
    "tram": "yes",
    "wheelchair": "yes"
  }
},
{
  "type": "node",
  "id": 445133761,
  "lat": 45.1892224,
  "lon": 5.6942469,
  "tags": {
    "name": "Louis Maisonnat",
    "public_transport": "stop_position",
    "railway": "tram_stop",
    "wheelchair": "yes"
  }
},
{
  "type": "node",
  "id": 445133773,
  "lat": 45.1913182,
  "lon": 5.6873968,
  "tags": {
    "name": "Fontaine - Hôtel de Ville - La Source",
    "public_transport": "stop_position",
    "railway": "tram_stop",
    "tram": "yes",
    "wheelchair": "yes"
  }
},
{
  "type": "node",
  "id": 445206264,
  "lat": 45.1663650,
  "lon": 5.6906191,
  "tags": {
    "bus": "yes",
    "highway": "bus_stop",
    "name": "Seyssins - Le Prisme",
    "public_transport": "stop_position",
    "tram": "no",
    "wheelchair": "yes"
  }
},
{
  "type": "node",
  "id": 445206267,
  "lat": 45.1663219,
  "lon": 5.6903157,
  "tags": {
    "bus": "yes",
    "highway": "bus_stop",
    "name": "Seyssins - Le Prisme",
    "public_transport": "stop_position",
    "tram": "no",
    "wheelchair": "yes"
  }
},
{
  "type": "node",
  "id": 445206279,
  "lat": 45.1690390,
  "lon": 5.6921151,
  "tags": {
    "bus": "yes",
    "highway": "bus_stop",
    "name": "Tuillerie",
    "public_transport": "stop_position",
    "wheelchair": "yes"
  }
},
{
  "type": "node",
  "id": 445206303,
  "lat": 45.1698029,
  "lon": 5.6835985,
  "tags": {
    "bus": "yes",
    "highway": "bus_stop",
    "name": "Cimetière",
    "public_transport": "stop_position",
    "source": "cadastre-dgi-fr source : Direction Générale des Impôts - Cadastre ; mise à jour : 2009",
    "wheelchair": "yes"
  }
},
{
  "type": "node",
  "id": 445206309,
  "lat": 45.1702511,
  "lon": 5.6865064,
  "tags": {
    "bus": "yes",
    "highway": "bus_stop",
    "name": "Percevalière",
    "public_transport": "stop_position",
    "wheelchair": "yes"
  }
},
{
  "type": "node",
  "id": 445206311,
  "lat": 45.1701791,
  "lon": 5.6868537,
  "tags": {
    "bus": "yes",
    "highway": "bus_stop",
    "name": "Percevalière",
    "public_transport": "stop_position",
    "wheelchair": "yes"
  }
},
{
  "type": "node",
  "id": 445206312,
  "lat": 45.1696633,
  "lon": 5.6834914,
  "tags": {
    "bus": "yes",
    "highway": "bus_stop",
    "name": "Cimetière",
    "public_transport": "stop_position",
    "wheelchair": "yes"
  }
},
{
  "type": "node",
  "id": 445206335,
  "lat": 45.1708579,
  "lon": 5.6945374,
  "tags": {
    "bus": "yes",
    "highway": "bus_stop",
    "name": "Grand Pré - Centre Sud",
    "public_transport": "stop_position",
    "wheelchair": "yes"
  }
},
{
  "type": "node",
  "id": 445206337,
  "lat": 45.1709410,
  "lon": 5.6946824,
  "tags": {
    "bus": "yes",
    "highway": "bus_stop",
    "name": "Grand Pré - Centre Sud",
    "public_transport": "stop_position",
    "wheelchair": "yes"
  }
},
{
  "type": "node",
  "id": 445206340,
  "lat": 45.1724128,
  "lon": 5.6968509,
  "tags": {
    "bus": "yes",
    "highway": "bus_stop",
    "name": "La Plaine",
    "public_transport": "stop_position",
    "wheelchair": "yes"
  }
},
{
  "type": "node",
  "id": 445206342,
  "lat": 45.1725882,
  "lon": 5.6968581,
  "tags": {
    "bus": "yes",
    "highway": "bus_stop",
    "name": "La Plaine",
    "public_transport": "stop_position",
    "wheelchair": "yes"
  }
},
{
  "type": "node",
  "id": 445206344,
  "lat": 45.1752683,
  "lon": 5.6969310,
  "tags": {
    "bus": "yes",
    "highway": "bus_stop",
    "name": "Beau Site",
    "public_transport": "stop_position",
    "wheelchair": "yes"
  }
},
{
  "type": "node",
  "id": 445206345,
  "lat": 45.1758902,
  "lon": 5.6969430,
  "tags": {
    "bus": "yes",
    "highway": "bus_stop",
    "name": "Beau Site",
    "public_transport": "stop_position",
    "wheelchair": "yes"
  }
},
{
  "type": "node",
  "id": 445206350,
  "lat": 45.1781545,
  "lon": 5.6970050,
  "tags": {
    "highway": "bus_stop",
    "name": "L'Arche",
    "old_name": "Centre Social",
    "operator": "TAG",
    "route_ref": "51",
    "shelter": "yes"
  }
},
{
  "type": "node",
  "id": 445206351,
  "lat": 45.1783042,
  "lon": 5.6970092,
  "tags": {
    "highway": "bus_stop",
    "name": "L'Arche",
    "old_name": "Centre Social",
    "operator": "TAG",
    "public_transport": "stop_position",
    "route_ref": "51",
    "shelter": "yes"
  }
},
{
  "type": "node",
  "id": 445206352,
  "lat": 45.1807744,
  "lon": 5.6970463,
  "tags": {
    "bus": "yes",
    "highway": "bus_stop",
    "name": "Seyssinet Pariset - Hôtel de Ville",
    "public_transport": "stop_position",
    "wheelchair": "yes"
  }
},
{
  "type": "node",
  "id": 445206354,
  "lat": 45.1811320,
  "lon": 5.6970885,
  "tags": {
    "bus": "yes",
    "highway": "bus_stop",
    "name": "Seyssinet Pariset - Hôtel de Ville",
    "public_transport": "stop_position",
    "wheelchair": "yes"
  }
},
{
  "type": "node",
  "id": 445206355,
  "lat": 45.1850993,
  "lon": 5.6946051,
  "tags": {
    "bus": "yes",
    "highway": "bus_stop",
    "name": "Aristide Bergès",
    "public_transport": "stop_position",
    "wheelchair": "yes"
  }
},
{
  "type": "node",
  "id": 445206356,
  "lat": 45.1855427,
  "lon": 5.6946085,
  "tags": {
    "bus": "yes",
    "highway": "bus_stop",
    "name": "Aristide Bergès",
    "public_transport": "stop_position",
    "wheelchair": "yes"
  }
},
{
  "type": "node",
  "id": 445206358,
  "lat": 45.1841745,
  "lon": 5.6971474,
  "tags": {
    "bus": "yes",
    "highway": "bus_stop",
    "name": "Les Îles",
    "public_transport": "stop_position",
    "wheelchair": "yes"
  }
},
{
  "type": "node",
  "id": 445206359,
  "lat": 45.1840643,
  "lon": 5.6971430,
  "tags": {
    "bus": "yes",
    "highway": "bus_stop",
    "name": "Les Îles",
    "public_transport": "stop_position",
    "wheelchair": "yes"
  }
},
{
  "type": "node",
  "id": 445963854,
  "lat": 45.1918552,
  "lon": 5.6950327,
  "tags": {
    "bus": "yes",
    "highway": "bus_stop",
    "name": "Curie - Vercors",
    "public_transport": "stop_position",
    "wheelchair": "yes"
  }
},
{
  "type": "node",
  "id": 445963855,
  "lat": 45.1941827,
  "lon": 5.6946892,
  "tags": {
    "bus": "yes",
    "highway": "bus_stop",
    "name": "Rue Pasteur",
    "public_transport": "stop_position",
    "wheelchair": "yes"
  }
},
{
  "type": "node",
  "id": 445963856,
  "lat": 45.1946854,
  "lon": 5.6945698,
  "tags": {
    "bus": "yes",
    "highway": "bus_stop",
    "name": "Rue Pasteur",
    "public_transport": "stop_position",
    "wheelchair": "yes"
  }
},
{
  "type": "node",
  "id": 445963860,
  "lat": 45.1979261,
  "lon": 5.6930405,
  "tags": {
    "bus": "yes",
    "highway": "bus_stop",
    "name": "Charmettes",
    "public_transport": "stop_position",
    "wheelchair": "yes"
  }
},
{
  "type": "node",
  "id": 445963861,
  "lat": 45.1964618,
  "lon": 5.6771107,
  "tags": {
    "bus": "yes",
    "highway": "bus_stop",
    "name": "Gérard Philippe",
    "public_transport": "stop_position",
    "wheelchair": "yes"
  }
},
{
  "type": "node",
  "id": 445963863,
  "lat": 45.2001935,
  "lon": 5.6871388,
  "tags": {
    "bus": "yes",
    "highway": "bus_stop",
    "name": "École Robespierre",
    "public_transport": "stop_position",
    "wheelchair": "yes"
  }
},
{
  "type": "node",
  "id": 445963864,
  "lat": 45.2001006,
  "lon": 5.6883458,
  "tags": {
    "bus": "yes",
    "highway": "bus_stop",
    "name": "École Robespierre",
    "public_transport": "stop_position",
    "wheelchair": "yes"
  }
},
{
  "type": "node",
  "id": 445963866,
  "lat": 45.1991002,
  "lon": 5.6827777,
  "tags": {
    "bus": "yes",
    "highway": "bus_stop",
    "name": "Marat",
    "public_transport": "stop_position",
    "wheelchair": "yes"
  }
},
{
  "type": "node",
  "id": 445963867,
  "lat": 45.1991494,
  "lon": 5.6828969,
  "tags": {
    "bus": "yes",
    "highway": "bus_stop",
    "name": "Marat",
    "public_transport": "stop_position",
    "wheelchair": "yes"
  }
},
{
  "type": "node",
  "id": 445963872,
  "lat": 45.1983210,
  "lon": 5.6814362,
  "tags": {
    "bus": "yes",
    "highway": "bus_stop",
    "name": "Rue des Alpes",
    "public_transport": "stop_position",
    "wheelchair": "yes"
  }
},
{
  "type": "node",
  "id": 445963874,
  "lat": 45.2197935,
  "lon": 5.6603967,
  "tags": {
    "bus": "yes",
    "highway": "bus_stop",
    "name": "Les Engenières",
    "public_transport": "stop_position",
    "wheelchair": "no"
  }
},
{
  "type": "node",
  "id": 445963876,
  "lat": 45.2150270,
  "lon": 5.6611526,
  "tags": {
    "bus": "yes",
    "highway": "bus_stop",
    "name": "La Rollandière",
    "public_transport": "stop_position",
    "wheelchair": "no"
  }
},
{
  "type": "node",
  "id": 445963877,
  "lat": 45.2148334,
  "lon": 5.6612005,
  "tags": {
    "bus": "yes",
    "highway": "bus_stop",
    "name": "La Rollandière",
    "public_transport": "stop_position",
    "wheelchair": "yes"
  }
},
{
  "type": "node",
  "id": 445963878,
  "lat": 45.2122602,
  "lon": 5.6617551,
  "tags": {
    "bus": "yes",
    "highway": "bus_stop",
    "name": "Château",
    "public_transport": "stop_position",
    "wheelchair": "yes"
  }
},
{
  "type": "node",
  "id": 445963879,
  "lat": 45.2122695,
  "lon": 5.6616803,
  "tags": {
    "bus": "yes",
    "highway": "bus_stop",
    "name": "Château",
    "public_transport": "stop_position",
    "wheelchair": "yes"
  }
},
{
  "type": "node",
  "id": 445963880,
  "lat": 45.2097458,
  "lon": 5.6644448,
  "tags": {
    "bus": "yes",
    "highway": "bus_stop",
    "name": "Le Gua",
    "public_transport": "stop_position",
    "wheelchair": "yes"
  }
},
{
  "type": "node",
  "id": 445963881,
  "lat": 45.2096724,
  "lon": 5.6643698,
  "tags": {
    "bus": "yes",
    "highway": "bus_stop",
    "name": "Le Gua",
    "public_transport": "stop_position",
    "wheelchair": "yes"
  }
},
{
  "type": "node",
  "id": 445963882,
  "lat": 45.2097188,
  "lon": 5.6669419,
  "tags": {
    "bus": "yes",
    "highway": "bus_stop",
    "name": "L'Ovalie",
    "public_transport": "stop_position",
    "wheelchair": "yes"
  }
},
{
  "type": "node",
  "id": 445963886,
  "lat": 45.2044297,
  "lon": 5.6649559,
  "tags": {
    "bus": "yes",
    "highway": "bus_stop",
    "name": "Trefforine",
    "public_transport": "stop_position",
    "wheelchair": "yes"
  }
},
{
  "type": "node",
  "id": 445963887,
  "lat": 45.2041296,
  "lon": 5.6652778,
  "tags": {
    "bus": "yes",
    "highway": "bus_stop",
    "name": "Trefforine",
    "public_transport": "stop_position",
    "wheelchair": "yes"
  }
},
{
  "type": "node",
  "id": 445963888,
  "lat": 45.2017862,
  "lon": 5.6676282,
  "tags": {
    "bus": "yes",
    "highway": "bus_stop",
    "name": "Pré Fleury",
    "public_transport": "stop_position",
    "wheelchair": "yes"
  }
},
{
  "type": "node",
  "id": 445963889,
  "lat": 45.2014724,
  "lon": 5.6679403,
  "tags": {
    "bus": "yes",
    "highway": "bus_stop",
    "name": "Pré Fleury",
    "public_transport": "stop_position",
    "wheelchair": "yes"
  }
},
{
  "type": "node",
  "id": 445963891,
  "lat": 45.1995318,
  "lon": 5.6699017,
  "tags": {
    "bus": "yes",
    "highway": "bus_stop",
    "name": "Les Pies",
    "public_transport": "stop_position",
    "wheelchair": "yes"
  }
},
{
  "type": "node",
  "id": 448287837,
  "lat": 45.1440165,
  "lon": 5.7401544,
  "tags": {
    "bus": "yes",
    "highway": "bus_stop",
    "name": "La Maritelle",
    "network": "TAG",
    "public_transport": "stop_position",
    "wheelchair": "yes"
  }
},
{
  "type": "node",
  "id": 451116245,
  "lat": 45.1888542,
  "lon": 5.7364731,
  "tags": {
    "bus": "yes",
    "highway": "bus_stop",
    "name": "Bir Hakeim",
    "public_transport": "stop_position",
    "wheelchair": "yes"
  }
},
{
  "type": "node",
  "id": 451116247,
  "lat": 45.1888191,
  "lon": 5.7368015,
  "tags": {
    "bus": "yes",
    "highway": "bus_stop",
    "name": "Bir Hakeim",
    "public_transport": "stop_position",
    "wheelchair": "yes"
  }
},
{
  "type": "node",
  "id": 451116270,
  "lat": 45.1855869,
  "lon": 5.7478895,
  "tags": {
    "bus": "yes",
    "highway": "bus_stop",
    "name": "Croix Rouge",
    "public_transport": "stop_position",
    "wheelchair": "yes"
  }
},
{
  "type": "node",
  "id": 451116279,
  "lat": 45.1847714,
  "lon": 5.7508744,
  "tags": {
    "bus": "yes",
    "highway": "bus_stop",
    "name": "Gay",
    "public_transport": "stop_position",
    "wheelchair": "yes"
  }
},
{
  "type": "node",
  "id": 451116284,
  "lat": 45.1845112,
  "lon": 5.7518542,
  "tags": {
    "bus": "no",
    "highway": "bus_stop",
    "name": "Gay",
    "public_transport": "stop_position",
    "wheelchair": "yes"
  }
},
{
  "type": "node",
  "id": 451116301,
  "lat": 45.1825480,
  "lon": 5.7590883,
  "tags": {
    "bus": "no",
    "highway": "bus_stop",
    "name": "Cité Labeye",
    "public_transport": "stop_position",
    "wheelchair": "yes"
  }
},
{
  "type": "node",
  "id": 451116303,
  "lat": 45.1821813,
  "lon": 5.7604566,
  "tags": {
    "bus": "yes",
    "highway": "bus_stop",
    "name": "Cité Labeye",
    "public_transport": "stop_position",
    "wheelchair": "yes"
  }
},
{
  "type": "node",
  "id": 451116308,
  "lat": 45.1814134,
  "lon": 5.7633041,
  "tags": {
    "bus": "yes",
    "highway": "bus_stop",
    "name": "Portail Rouge",
    "public_transport": "stop_position",
    "wheelchair": "yes"
  }
},
{
  "type": "node",
  "id": 451116310,
  "lat": 45.1813718,
  "lon": 5.7634644,
  "tags": {
    "bus": "yes",
    "highway": "bus_stop",
    "name": "Portail Rouge",
    "public_transport": "stop_position",
    "wheelchair": "yes"
  }
},
{
  "type": "node",
  "id": 451116311,
  "lat": 45.1807675,
  "lon": 5.7656919,
  "tags": {
    "bus": "no",
    "highway": "bus_stop",
    "name": "Coli",
    "public_transport": "stop_position",
    "wheelchair": "yes"
  }
},
{
  "type": "node",
  "id": 451116313,
  "lat": 45.1806956,
  "lon": 5.7659524,
  "tags": {
    "bus": "no",
    "highway": "bus_stop",
    "name": "Coli",
    "public_transport": "stop_position",
    "wheelchair": "yes"
  }
},
{
  "type": "node",
  "id": 451116315,
  "lat": 45.1795444,
  "lon": 5.7702146,
  "tags": {
    "bus": "yes",
    "highway": "bus_stop",
    "name": "Elsa Triolet",
    "public_transport": "stop_position",
    "wheelchair": "yes"
  }
},
{
  "type": "node",
  "id": 451116318,
  "lat": 45.1795784,
  "lon": 5.7700853,
  "tags": {
    "bus": "yes",
    "highway": "bus_stop",
    "name": "Elsa Triolet",
    "public_transport": "stop_position",
    "wheelchair": "yes"
  }
},
{
  "type": "node",
  "id": 451116323,
  "lat": 45.1787396,
  "lon": 5.7731807,
  "tags": {
    "bus": "no",
    "highway": "bus_stop",
    "name": "Galochère",
    "public_transport": "stop_position",
    "wheelchair": "yes"
  }
},
{
  "type": "node",
  "id": 451116329,
  "lat": 45.1778202,
  "lon": 5.7779220,
  "tags": {
    "bus": "yes",
    "highway": "bus_stop",
    "name": "Anguisses",
    "public_transport": "stop_position",
    "wheelchair": "yes"
  }
},
{
  "type": "node",
  "id": 451116334,
  "lat": 45.1789613,
  "lon": 5.7809983,
  "tags": {
    "bus": "yes",
    "highway": "bus_stop",
    "name": "Roseraie",
    "public_transport": "stop_position",
    "wheelchair": "yes"
  }
},
{
  "type": "node",
  "id": 451116358,
  "lat": 45.1814353,
  "lon": 5.7876744,
  "tags": {
    "bus": "yes",
    "highway": "bus_stop",
    "name": "Edelweiss",
    "public_transport": "stop_position",
    "wheelchair": "yes"
  }
},
{
  "type": "node",
  "id": 451116363,
  "lat": 45.1814873,
  "lon": 5.7876146,
  "tags": {
    "bus": "yes",
    "highway": "bus_stop",
    "name": "Edelweiss",
    "public_transport": "stop_position",
    "wheelchair": "yes"
  }
},
{
  "type": "node",
  "id": 451116374,
  "lat": 45.1820984,
  "lon": 5.7927109,
  "tags": {
    "bus": "yes",
    "highway": "bus_stop",
    "name": "Place de la République",
    "public_transport": "stop_position",
    "wheelchair": "yes"
  }
},
{
  "type": "node",
  "id": 451116379,
  "lat": 45.1820752,
  "lon": 5.7926063,
  "tags": {
    "bus": "yes",
    "highway": "bus_stop",
    "name": "Place de la République",
    "public_transport": "stop_position",
    "wheelchair": "yes"
  }
},
{
  "type": "node",
  "id": 451116382,
  "lat": 45.1838055,
  "lon": 5.7984903,
  "tags": {
    "bus": "yes",
    "highway": "bus_stop",
    "name": "Pied de Gières",
    "public_transport": "stop_position",
    "wheelchair": "yes"
  }
},
{
  "type": "node",
  "id": 451116389,
  "lat": 45.1838824,
  "lon": 5.7985470,
  "tags": {
    "bus": "yes",
    "highway": "bus_stop",
    "name": "Pied de Gières",
    "public_transport": "stop_position",
    "wheelchair": "yes"
  }
},
{
  "type": "node",
  "id": 451116393,
  "lat": 45.1857356,
  "lon": 5.8028965,
  "tags": {
    "bus": "yes",
    "highway": "bus_stop",
    "name": "Champrondet",
    "public_transport": "stop_position",
    "wheelchair": "yes"
  }
},
{
  "type": "node",
  "id": 451116397,
  "lat": 45.1857887,
  "lon": 5.8028859,
  "tags": {
    "bus": "yes",
    "highway": "bus_stop",
    "name": "Champrondet",
    "public_transport": "stop_position",
    "wheelchair": "yes"
  }
},
{
  "type": "node",
  "id": 451116406,
  "lat": 45.1873444,
  "lon": 5.8073357,
  "tags": {
    "bus": "yes",
    "highway": "bus_stop",
    "name": "Le Japin",
    "public_transport": "stop_position",
    "wheelchair": "yes"
  }
},
{
  "type": "node",
  "id": 451116409,
  "lat": 45.1874691,
  "lon": 5.8070884,
  "tags": {
    "bus": "yes",
    "highway": "bus_stop",
    "name": "Le Japin",
    "public_transport": "stop_position",
    "wheelchair": "yes"
  }
},
{
  "type": "node",
  "id": 451237908,
  "lat": 45.1649175,
  "lon": 5.7653012,
  "tags": {
    "bus": "yes",
    "highway": "bus_stop",
    "name": "Saint-Martin-d'Hères - Village",
    "public_transport": "stop_position",
    "wheelchair": "yes"
  }
},
{
  "type": "node",
  "id": 451237910,
  "lat": 45.1651364,
  "lon": 5.7655107,
  "tags": {
    "bus": "yes",
    "highway": "bus_stop",
    "name": "Saint-Martin-d'Hères - Village",
    "public_transport": "stop_position",
    "wheelchair": "yes"
  }
},
{
  "type": "node",
  "id": 451237911,
  "lat": 45.1629242,
  "lon": 5.7633943,
  "tags": {
    "bus": "yes",
    "highway": "bus_stop",
    "name": "Le Carina",
    "public_transport": "stop_position",
    "wheelchair": "yes"
  }
},
{
  "type": "node",
  "id": 451237917,
  "lat": 45.1661579,
  "lon": 5.7645840,
  "tags": {
    "bus": "yes",
    "highway": "bus_stop",
    "name": "Maisons Blanches",
    "public_transport": "stop_position",
    "wheelchair": "yes"
  }
},
{
  "type": "node",
  "id": 451237918,
  "lat": 45.1667696,
  "lon": 5.7633887,
  "tags": {
    "bus": "yes",
    "highway": "bus_stop",
    "name": "Maisons Blanches",
    "public_transport": "stop_position",
    "wheelchair": "yes"
  }
},
{
  "type": "node",
  "id": 451237919,
  "lat": 45.1682700,
  "lon": 5.7626485,
  "tags": {
    "bus": "yes",
    "highway": "bus_stop",
    "name": "Croix du Pâtre",
    "public_transport": "stop_position",
    "wheelchair": "yes"
  }
},
{
  "type": "node",
  "id": 451237920,
  "lat": 45.1696489,
  "lon": 5.7636527,
  "tags": {
    "bus": "yes",
    "highway": "bus_stop",
    "name": "Les Glaieuls",
    "public_transport": "stop_position",
    "wheelchair": "yes"
  }
},
{
  "type": "node",
  "id": 451237923,
  "lat": 45.1700421,
  "lon": 5.7639385,
  "tags": {
    "bus": "yes",
    "highway": "bus_stop",
    "name": "Les Glaieuls",
    "public_transport": "stop_position",
    "wheelchair": "yes"
  }
},
{
  "type": "node",
  "id": 451237924,
  "lat": 45.1720236,
  "lon": 5.7651684,
  "tags": {
    "bus": "yes",
    "highway": "bus_stop",
    "name": "Les Alloves",
    "public_transport": "stop_position",
    "wheelchair": "yes"
  }
},
{
  "type": "node",
  "id": 451237925,
  "lat": 45.1719270,
  "lon": 5.7649974,
  "tags": {
    "bus": "yes",
    "highway": "bus_stop",
    "name": "Les Alloves",
    "public_transport": "stop_position",
    "wheelchair": "yes"
  }
},
{
  "type": "node",
  "id": 451237933,
  "lat": 45.1681906,
  "lon": 5.7617517,
  "tags": {
    "bus": "yes",
    "highway": "bus_stop",
    "name": "Croix du Pâtre",
    "public_transport": "stop_position",
    "wheelchair": "yes"
  }
},
{
  "type": "node",
  "id": 451237934,
  "lat": 45.1708318,
  "lon": 5.7585931,
  "tags": {
    "bus": "yes",
    "highway": "bus_stop",
    "name": "Potié",
    "public_transport": "stop_position",
    "wheelchair": "yes"
  }
},
{
  "type": "node",
  "id": 451237935,
  "lat": 45.1709385,
  "lon": 5.7584602,
  "tags": {
    "bus": "yes",
    "highway": "bus_stop",
    "name": "Potié",
    "public_transport": "stop_position",
    "wheelchair": "yes"
  }
},
{
  "type": "node",
  "id": 451237941,
  "lat": 45.1744228,
  "lon": 5.7543106,
  "tags": {
    "bus": "yes",
    "highway": "bus_stop",
    "name": "Chanas",
    "public_transport": "stop_position",
    "wheelchair": "yes"
  }
},
{
  "type": "node",
  "id": 451237943,
  "lat": 45.1779160,
  "lon": 5.7516553,
  "tags": {
    "bus": "yes",
    "highway": "bus_stop",
    "name": "La Houille Blanche",
    "public_transport": "stop_position",
    "wheelchair": "yes"
  }
},
{
  "type": "node",
  "id": 451237944,
  "lat": 45.1782339,
  "lon": 5.7515372,
  "tags": {
    "bus": "yes",
    "highway": "bus_stop",
    "name": "Bon Pasteur",
    "public_transport": "stop_position",
    "wheelchair": "yes"
  }
},
{
  "type": "node",
  "id": 451237945,
  "lat": 45.1793745,
  "lon": 5.7508296,
  "tags": {
    "bus": "yes",
    "highway": "bus_stop",
    "name": "Bon Pasteur",
    "public_transport": "stop_position",
    "wheelchair": "yes"
  }
},
{
  "type": "node",
  "id": 451237947,
  "lat": 45.1818572,
  "lon": 5.7485023,
  "tags": {
    "bus": "yes",
    "highway": "bus_stop",
    "name": "Grand Châtelet",
    "public_transport": "stop_position",
    "wheelchair": "yes"
  }
},
{
  "type": "node",
  "id": 451237948,
  "lat": 45.1819374,
  "lon": 5.7458029,
  "tags": {
    "bus": "yes",
    "highway": "bus_stop",
    "name": "Jeanne d'Arc",
    "public_transport": "stop_position",
    "wheelchair": "yes"
  }
},
{
  "type": "node",
  "id": 451237950,
  "lat": 45.1817465,
  "lon": 5.7452125,
  "tags": {
    "bus": "yes",
    "highway": "bus_stop",
    "name": "Jeanne d'Arc",
    "public_transport": "stop_position",
    "wheelchair": "yes"
  }
},
{
  "type": "node",
  "id": 451237953,
  "lat": 45.1850982,
  "lon": 5.7432101,
  "tags": {
    "bus": "yes",
    "highway": "bus_stop",
    "name": "Madeleine",
    "public_transport": "stop_position",
    "wheelchair": "yes"
  }
},
{
  "type": "node",
  "id": 451237959,
  "lat": 45.1948903,
  "lon": 5.7191220,
  "tags": {
    "bus": "yes",
    "highway": "bus_stop",
    "name": "Aristide Briand",
    "public_transport": "stop_position",
    "wheelchair": "limited"
  }
},
{
  "type": "node",
  "id": 451237960,
  "lat": 45.1989534,
  "lon": 5.7180702,
  "tags": {
    "bus": "yes",
    "highway": "bus_stop",
    "name": "Petite Esplanade",
    "public_transport": "stop_position",
    "wheelchair": "no"
  }
},
{
  "type": "node",
  "id": 451237961,
  "lat": 45.1979892,
  "lon": 5.7182440,
  "tags": {
    "bus": "yes",
    "highway": "bus_stop",
    "name": "Petite Esplanade",
    "public_transport": "stop_position",
    "wheelchair": "yes"
  }
},
{
  "type": "node",
  "id": 451237962,
  "lat": 45.1957926,
  "lon": 5.7190264,
  "tags": {
    "bus": "yes",
    "highway": "bus_stop",
    "name": "Aristide Briand",
    "public_transport": "stop_position",
    "wheelchair": "limited"
  }
},
{
  "type": "node",
  "id": 451237963,
  "lat": 45.1941783,
  "lon": 5.7188258,
  "tags": {
    "bus": "yes",
    "highway": "bus_stop",
    "name": "Esplanade",
    "public_transport": "stop_position",
    "shelter": "no",
    "wheelchair": "no"
  }
},
{
  "type": "node",
  "id": 451237965,
  "lat": 45.1913949,
  "lon": 5.7225167,
  "tags": {
    "bus": "yes",
    "highway": "bus_stop",
    "name": "Docteur Mazet",
    "public_transport": "stop_position",
    "wheelchair": "yes"
  }
},
{
  "type": "node",
  "id": 457759105,
  "lat": 45.2053676,
  "lon": 5.6961119,
  "tags": {
    "bus": "yes",
    "highway": "bus_stop",
    "name": "Polygone Scientifique",
    "public_transport": "stop_position",
    "wheelchair": "yes"
  }
},
{
  "type": "node",
  "id": 457759108,
  "lat": 45.2060215,
  "lon": 5.6995453,
  "tags": {
    "bus": "yes",
    "highway": "bus_stop",
    "name": "Place de la Résistance",
    "public_transport": "stop_position",
    "wheelchair": "limited"
  }
},
{
  "type": "node",
  "id": 457759110,
  "lat": 45.2083692,
  "lon": 5.6963517,
  "tags": {
    "highway": "bus_stop",
    "name": "Martyrs-Résistance",
    "public_transport": "stop_position",
    "shelter": "no",
    "wheelchair": "limited"
  }
},
{
  "type": "node",
  "id": 457759133,
  "lat": 45.2099125,
  "lon": 5.6767331,
  "tags": {
    "bus": "yes",
    "highway": "bus_stop",
    "name": "François Blumet",
    "public_transport": "stop_position",
    "wheelchair": "no"
  }
},
{
  "type": "node",
  "id": 457759134,
  "lat": 45.2077133,
  "lon": 5.6801617,
  "tags": {
    "bus": "yes",
    "highway": "bus_stop",
    "name": "Maladière",
    "public_transport": "stop_position",
    "wheelchair": "yes"
  }
},
{
  "type": "node",
  "id": 457759138,
  "lat": 45.2097000,
  "lon": 5.6770251,
  "tags": {
    "bus": "yes",
    "highway": "bus_stop",
    "name": "François Blumet",
    "public_transport": "stop_position",
    "wheelchair": "no"
  }
},
{
  "type": "node",
  "id": 457759139,
  "lat": 45.2113922,
  "lon": 5.6726196,
  "tags": {
    "bus": "yes",
    "highway": "bus_stop",
    "name": "Complexe Sportif",
    "public_transport": "stop_position",
    "wheelchair": "limited"
  }
},
{
  "type": "node",
  "id": 457759140,
  "lat": 45.2063432,
  "lon": 5.6839036,
  "tags": {
    "bus": "yes",
    "highway": "bus_stop",
    "name": "Chamechaude",
    "public_transport": "stop_position",
    "wheelchair": "no"
  }
},
{
  "type": "node",
  "id": 457759141,
  "lat": 45.2045917,
  "lon": 5.7010577,
  "tags": {
    "bus": "yes",
    "highway": "bus_stop",
    "name": "Place de la Résistance",
    "public_transport": "stop_position",
    "wheelchair": "limited"
  }
},
{
  "type": "node",
  "id": 457759143,
  "lat": 45.2077248,
  "lon": 5.6804593,
  "tags": {
    "bus": "yes",
    "highway": "bus_stop",
    "name": "Maladière",
    "public_transport": "stop_position",
    "wheelchair": "no"
  }
},
{
  "type": "node",
  "id": 457759145,
  "lat": 45.2010888,
  "lon": 5.7060649,
  "tags": {
    "bus": "yes",
    "highway": "bus_stop",
    "name": "CEA",
    "public_transport": "stop_position",
    "wheelchair": "limited"
  }
},
{
  "type": "node",
  "id": 457759146,
  "lat": 45.2007818,
  "lon": 5.7061083,
  "tags": {
    "bus": "yes",
    "highway": "bus_stop",
    "name": "CEA",
    "public_transport": "stop_position",
    "wheelchair": "limited"
  }
},
{
  "type": "node",
  "id": 457759151,
  "lat": 45.2005271,
  "lon": 5.7119658,
  "tags": {
    "bus": "yes",
    "highway": "bus_stop",
    "name": "Cité Jean-Macé",
    "public_transport": "stop_position",
    "wheelchair": "limited"
  }
},
{
  "type": "node",
  "id": 457759153,
  "lat": 45.1992743,
  "lon": 5.7080682,
  "tags": {
    "bus": "yes",
    "highway": "bus_stop",
    "name": "Rue des Martyrs",
    "public_transport": "stop_position",
    "wheelchair": "limited"
  }
},
{
  "type": "node",
  "id": 457759154,
  "lat": 45.1970838,
  "lon": 5.7117749,
  "tags": {
    "bus": "yes",
    "highway": "bus_stop",
    "name": "Arago",
    "public_transport": "stop_position",
    "wheelchair": "yes"
  }
},
{
  "type": "node",
  "id": 457759156,
  "lat": 45.1949450,
  "lon": 5.7135796,
  "tags": {
    "bus": "yes",
    "highway": "bus_stop",
    "name": "Emile Gueymard",
    "public_transport": "stop_position",
    "wheelchair": "yes"
  }
},
{
  "type": "node",
  "id": 457759157,
  "lat": 45.2000680,
  "lon": 5.7125669,
  "tags": {
    "bus": "yes",
    "highway": "bus_stop",
    "name": "Cité Jean-Macé",
    "public_transport": "stop_position",
    "wheelchair": "limited"
  }
},
{
  "type": "node",
  "id": 457759158,
  "lat": 45.1977182,
  "lon": 5.7115077,
  "tags": {
    "bus": "yes",
    "highway": "bus_stop",
    "name": "Arago",
    "public_transport": "stop_position",
    "wheelchair": "no"
  }
},
{
  "type": "node",
  "id": 457759161,
  "lat": 45.1948113,
  "lon": 5.7136431,
  "tags": {
    "bus": "yes",
    "highway": "bus_stop",
    "name": "Emile Gueymard",
    "public_transport": "stop_position",
    "wheelchair": "yes"
  }
},
{
  "type": "node",
  "id": 457759165,
  "lat": 45.1907851,
  "lon": 5.7184892,
  "tags": {
    "bus": "yes",
    "highway": "bus_stop",
    "name": "Félix Vialet",
    "public_transport": "stop_position",
    "wheelchair": "yes"
  }
},
{
  "type": "node",
  "id": 457759166,
  "lat": 45.1906676,
  "lon": 5.7177055,
  "tags": {
    "bus": "yes",
    "highway": "bus_stop",
    "name": "Félix Vialet",
    "public_transport": "stop_position",
    "wheelchair": "yes"
  }
},
{
  "type": "node",
  "id": 457759174,
  "lat": 45.1912669,
  "lon": 5.7216648,
  "tags": {
    "bus": "yes",
    "highway": "bus_stop",
    "name": "Docteur Mazet",
    "public_transport": "stop_position",
    "wheelchair": "yes"
  }
},
{
  "type": "node",
  "id": 457759175,
  "lat": 45.1822959,
  "lon": 5.7341025,
  "tags": {
    "bus": "yes",
    "highway": "bus_stop",
    "name": "Driant",
    "public_transport": "stop_position",
    "wheelchair": "yes"
  }
},
{
  "type": "node",
  "id": 457759176,
  "lat": 45.1825709,
  "lon": 5.7340810,
  "tags": {
    "bus": "yes",
    "highway": "bus_stop",
    "name": "Driant",
    "public_transport": "stop_position",
    "wheelchair": "yes"
  }
},
{
  "type": "node",
  "id": 457759177,
  "lat": 45.1837487,
  "lon": 5.7389005,
  "tags": {
    "bus": "yes",
    "highway": "bus_stop",
    "name": "Auguste Ravier",
    "public_transport": "stop_position",
    "wheelchair": "yes"
  }
},
{
  "type": "node",
  "id": 457759178,
  "lat": 45.1840066,
  "lon": 5.7395594,
  "tags": {
    "bus": "yes",
    "highway": "bus_stop",
    "name": "Auguste Ravier",
    "public_transport": "stop_position",
    "wheelchair": "yes"
  }
},
{
  "type": "node",
  "id": 457759181,
  "lat": 45.1838629,
  "lon": 5.7410344,
  "tags": {
    "bus": "yes",
    "highway": "bus_stop",
    "name": "Clémenceau",
    "public_transport": "stop_position",
    "wheelchair": "yes"
  }
},
{
  "type": "node",
  "id": 457759182,
  "lat": 45.1818462,
  "lon": 5.7409472,
  "tags": {
    "bus": "no",
    "highway": "bus_stop",
    "name": "Edison",
    "public_transport": "stop_position",
    "wheelchair": "yes"
  }
},
{
  "type": "node",
  "id": 457759183,
  "lat": 45.1811140,
  "lon": 5.7412540,
  "tags": {
    "bus": "yes",
    "highway": "bus_stop",
    "name": "Edison",
    "public_transport": "stop_position",
    "wheelchair": "yes"
  }
},
{
  "type": "node",
  "id": 457759185,
  "lat": 45.1787887,
  "lon": 5.7424669,
  "tags": {
    "bus": "yes",
    "highway": "bus_stop",
    "name": "Les Bains",
    "public_transport": "stop_position",
    "wheelchair": "yes"
  }
},
{
  "type": "node",
  "id": 457759186,
  "lat": 45.1782254,
  "lon": 5.7426706,
  "tags": {
    "bus": "no",
    "highway": "bus_stop",
    "name": "Les Bains",
    "public_transport": "stop_position",
    "wheelchair": "yes"
  }
},
{
  "type": "node",
  "id": 457759187,
  "lat": 45.1758689,
  "lon": 5.7440261,
  "tags": {
    "bus": "yes",
    "highway": "bus_stop",
    "name": "André Argouges",
    "public_transport": "stop_position",
    "wheelchair": "yes"
  }
},
{
  "type": "node",
  "id": 457759188,
  "lat": 45.1750672,
  "lon": 5.7448094,
  "tags": {
    "bus": "yes",
    "highway": "bus_stop",
    "name": "André Argouges",
    "public_transport": "stop_position",
    "wheelchair": "yes"
  }
},
{
  "type": "node",
  "id": 457759189,
  "lat": 45.1726310,
  "lon": 5.7457185,
  "tags": {
    "bus": "yes",
    "highway": "bus_stop",
    "name": "Paul Cocat",
    "public_transport": "stop_position",
    "wheelchair": "yes"
  }
},
{
  "type": "node",
  "id": 457759191,
  "lat": 45.1719260,
  "lon": 5.7454783,
  "tags": {
    "bus": "yes",
    "highway": "bus_stop",
    "name": "Paul Cocat",
    "public_transport": "stop_position",
    "wheelchair": "yes"
  }
},
{
  "type": "node",
  "id": 457759192,
  "lat": 45.1693077,
  "lon": 5.7445790,
  "tags": {
    "bus": "yes",
    "highway": "bus_stop",
    "name": "Léon Jouhaux",
    "public_transport": "stop_position",
    "wheelchair": "yes"
  }
},
{
  "type": "node",
  "id": 457759194,
  "lat": 45.1666492,
  "lon": 5.7465036,
  "tags": {
    "bus": "yes;no",
    "highway": "bus_stop",
    "name": "Pierre Loti",
    "public_transport": "stop_position",
    "wheelchair": "limited"
  }
},
{
  "type": "node",
  "id": 457759199,
  "lat": 45.1650778,
  "lon": 5.7490776,
  "tags": {
    "bus": "yes",
    "highway": "bus_stop",
    "name": "Paul Éluard",
    "public_transport": "stop_position",
    "wheelchair": "limited"
  }
},
{
  "type": "node",
  "id": 457759200,
  "lat": 45.1641391,
  "lon": 5.7504657,
  "tags": {
    "bus": "yes",
    "highway": "bus_stop",
    "name": "Le Marais",
    "public_transport": "stop_position",
    "wheelchair": "limited"
  }
},
{
  "type": "node",
  "id": 457759201,
  "lat": 45.1640021,
  "lon": 5.7506838,
  "tags": {
    "bus": "yes",
    "highway": "bus_stop",
    "name": "Le Marais",
    "public_transport": "stop_position",
    "wheelchair": "limited"
  }
},
{
  "type": "node",
  "id": 457759202,
  "lat": 45.1610822,
  "lon": 5.7552879,
  "tags": {
    "bus": "yes",
    "highway": "bus_stop",
    "name": "Bel Air",
    "public_transport": "stop_position",
    "wheelchair": "yes;no"
  }
},
{
  "type": "node",
  "id": 457759204,
  "lat": 45.1598853,
  "lon": 5.7571754,
  "tags": {
    "bus": "no",
    "highway": "bus_stop",
    "name": "Robespierre",
    "public_transport": "stop_position",
    "wheelchair": "yes"
  }
},
{
  "type": "node",
  "id": 457759205,
  "lat": 45.1597595,
  "lon": 5.7573743,
  "tags": {
    "bus": "yes",
    "highway": "bus_stop",
    "name": "Robespierre",
    "public_transport": "stop_position",
    "wheelchair": "yes"
  }
},
{
  "type": "node",
  "id": 457759206,
  "lat": 45.1582349,
  "lon": 5.7597536,
  "tags": {
    "bus": "no",
    "highway": "bus_stop",
    "name": "Centre Socio-Culturel",
    "public_transport": "stop_position",
    "wheelchair": "yes"
  }
},
{
  "type": "node",
  "id": 457759209,
  "lat": 45.1574838,
  "lon": 5.7638760,
  "tags": {
    "bus": "yes",
    "highway": "bus_stop",
    "name": "Prémol",
    "public_transport": "stop_position",
    "wheelchair": "yes"
  }
},
{
  "type": "node",
  "id": 457759213,
  "lat": 45.1575463,
  "lon": 5.7641132,
  "tags": {
    "bus": "yes",
    "highway": "bus_stop",
    "name": "Prémol",
    "public_transport": "stop_position",
    "wheelchair": "yes"
  }
},
{
  "type": "node",
  "id": 473280964,
  "lat": 45.0705824,
  "lon": 5.6751299,
  "tags": {
    "bus": "yes",
    "highway": "bus_stop",
    "name": "Pélissière",
    "public_transport": "stop_position",
    "wheelchair": "no"
  }
},
{
  "type": "node",
  "id": 473280976,
  "lat": 45.0632053,
  "lon": 5.6694010,
  "tags": {
    "bus": "yes",
    "highway": "bus_stop",
    "name": "Les Garcins",
    "public_transport": "stop_position",
    "wheelchair": "no"
  }
},
{
  "type": "node",
  "id": 473280979,
  "lat": 45.0606399,
  "lon": 5.6686203,
  "tags": {
    "bus": "yes",
    "highway": "bus_stop",
    "name": "Uriol",
    "public_transport": "stop_position",
    "wheelchair": "yes"
  }
},
{
  "type": "node",
  "id": 473280994,
  "lat": 45.0558688,
  "lon": 5.6689976,
  "tags": {
    "bus": "yes",
    "highway": "bus_stop",
    "name": "Vif Mairie",
    "public_transport": "stop_position",
    "wheelchair": "limited"
  }
},
{
  "type": "node",
  "id": 473281000,
  "lat": 45.0530266,
  "lon": 5.6765625,
  "tags": {
    "bus": "yes",
    "highway": "bus_stop",
    "name": "Vif Gendarmerie",
    "public_transport": "stop_position",
    "wheelchair": "limited"
  }
},
{
  "type": "node",
  "id": 473281002,
  "lat": 45.0519547,
  "lon": 5.6746589,
  "tags": {
    "bus": "yes",
    "highway": "bus_stop",
    "name": "Le Masségu",
    "public_transport": "stop_position",
    "wheelchair": "yes"
  }
},
{
  "type": "node",
  "id": 473281007,
  "lat": 45.0481756,
  "lon": 5.6674373,
  "tags": {
    "bus": "yes",
    "highway": "bus_stop",
    "name": "La Cime du Bourg",
    "public_transport": "stop_position",
    "wheelchair": "no"
  }
},
{
  "type": "node",
  "id": 473281015,
  "lat": 45.0432762,
  "lon": 5.6644448,
  "tags": {
    "bus": "yes",
    "highway": "bus_stop",
    "name": "Le Chalet",
    "public_transport": "stop_position",
    "wheelchair": "no"
  }
},
{
  "type": "node",
  "id": 473281027,
  "lat": 45.0393359,
  "lon": 5.6613113,
  "tags": {
    "bus": "yes",
    "highway": "bus_stop",
    "name": "La Grange",
    "public_transport": "stop_position",
    "wheelchair": "no"
  }
},
{
  "type": "node",
  "id": 473281032,
  "lat": 45.0323399,
  "lon": 5.6555484,
  "tags": {
    "bus": "yes",
    "highway": "bus_stop",
    "name": "Le Rif",
    "public_transport": "stop_position",
    "wheelchair": "limited"
  }
},
{
  "type": "node",
  "id": 473281046,
  "lat": 45.0300212,
  "lon": 5.6528700,
  "tags": {
    "bus": "yes",
    "highway": "bus_stop",
    "name": "L'Usine Nord",
    "public_transport": "stop_position",
    "wheelchair": "no"
  }
},
{
  "type": "node",
  "id": 473281072,
  "lat": 45.0285064,
  "lon": 5.6517551,
  "tags": {
    "bus": "yes",
    "highway": "bus_stop",
    "name": "Le Pont de Genevrey",
    "public_transport": "stop_position",
    "wheelchair": "no"
  }
},
{
  "type": "node",
  "id": 473281105,
  "lat": 45.0228775,
  "lon": 5.6450889,
  "tags": {
    "bus": "yes",
    "highway": "bus_stop",
    "name": "Les Saillants",
    "public_transport": "stop_position",
    "wheelchair": "no"
  }
},
{
  "type": "node",
  "id": 473281110,
  "lat": 45.0279179,
  "lon": 5.6511727,
  "tags": {
    "bus": "yes",
    "highway": "bus_stop",
    "name": "Le Pont de Genevrey",
    "public_transport": "stop_position",
    "wheelchair": "no"
  }
},
{
  "type": "node",
  "id": 473281113,
  "lat": 45.0298556,
  "lon": 5.6527393,
  "tags": {
    "bus": "yes",
    "highway": "bus_stop",
    "name": "L'Usine Nord",
    "public_transport": "stop_position",
    "wheelchair": "no"
  }
},
{
  "type": "node",
  "id": 473281118,
  "lat": 45.0325696,
  "lon": 5.6557733,
  "tags": {
    "bus": "yes",
    "highway": "bus_stop",
    "name": "Le Rif",
    "public_transport": "stop_position",
    "wheelchair": "limited"
  }
},
{
  "type": "node",
  "id": 473281125,
  "lat": 45.0436054,
  "lon": 5.6644739,
  "tags": {
    "bus": "yes",
    "highway": "bus_stop",
    "name": "Le Chalet",
    "public_transport": "stop_position",
    "wheelchair": "no"
  }
},
{
  "type": "node",
  "id": 473281137,
  "lat": 45.0520888,
  "lon": 5.6751820,
  "tags": {
    "bus": "yes",
    "highway": "bus_stop",
    "name": "Le Masségu",
    "public_transport": "stop_position",
    "wheelchair": "yes"
  }
},
{
  "type": "node",
  "id": 473281143,
  "lat": 45.0559443,
  "lon": 5.6685766,
  "tags": {
    "bus": "yes",
    "highway": "bus_stop",
    "name": "Vif Mairie",
    "public_transport": "stop_position",
    "wheelchair": "limited"
  }
},
{
  "type": "node",
  "id": 473281163,
  "lat": 45.0645842,
  "lon": 5.6704991,
  "tags": {
    "bus": "yes",
    "highway": "bus_stop",
    "name": "Les Garcins",
    "public_transport": "stop_position",
    "wheelchair": "no"
  }
},
{
  "type": "node",
  "id": 473281166,
  "lat": 45.0703762,
  "lon": 5.6750079,
  "tags": {
    "bus": "yes",
    "highway": "bus_stop",
    "name": "Pélissière",
    "public_transport": "stop_position",
    "wheelchair": "no"
  }
},
{
  "type": "node",
  "id": 473349859,
  "lat": 45.1199263,
  "lon": 5.6924624,
  "tags": {
    "bus": "yes",
    "highway": "bus_stop",
    "name": "Pompidou",
    "public_transport": "stop_position",
    "wheelchair": "limited"
  }
},
{
  "type": "node",
  "id": 473349863,
  "lat": 45.1198931,
  "lon": 5.6926894,
  "tags": {
    "bus": "yes",
    "highway": "bus_stop",
    "name": "Pompidou",
    "public_transport": "stop_position",
    "wheelchair": "limited"
  }
},
{
  "type": "node",
  "id": 473349886,
  "lat": 45.1214746,
  "lon": 5.6814289,
  "tags": {
    "bus": "yes",
    "highway": "bus_stop",
    "name": "La Chièze",
    "public_transport": "stop_position",
    "wheelchair": "yes"
  }
},
{
  "type": "node",
  "id": 473349887,
  "lat": 45.1212078,
  "lon": 5.6825935,
  "tags": {
    "bus": "yes",
    "highway": "bus_stop",
    "name": "La Chièze",
    "public_transport": "stop_position",
    "wheelchair": "yes"
  }
},
{
  "type": "node",
  "id": 473349888,
  "lat": 45.1210078,
  "lon": 5.6761328,
  "tags": {
    "bus": "yes",
    "highway": "bus_stop",
    "name": "La Ronzy",
    "public_transport": "stop_position",
    "wheelchair": "limited"
  }
},
{
  "type": "node",
  "id": 473349889,
  "lat": 45.1208329,
  "lon": 5.6758901,
  "tags": {
    "bus": "yes",
    "highway": "bus_stop",
    "name": "La Ronzy",
    "public_transport": "stop_position",
    "wheelchair": "limited"
  }
},
{
  "type": "node",
  "id": 473349890,
  "lat": 45.1202748,
  "lon": 5.6732868,
  "tags": {
    "bus": "yes",
    "highway": "bus_stop",
    "name": "Claix - Mairie",
    "public_transport": "stop_position",
    "wheelchair": "yes"
  }
},
{
  "type": "node",
  "id": 473349891,
  "lat": 45.1202395,
  "lon": 5.6724769,
  "tags": {
    "bus": "yes",
    "highway": "bus_stop",
    "name": "Claix - Mairie",
    "public_transport": "stop_position",
    "wheelchair": "yes"
  }
},
{
  "type": "node",
  "id": 473349894,
  "lat": 45.1211001,
  "lon": 5.6721067,
  "tags": {
    "bus": "yes",
    "highway": "bus_stop",
    "name": "Poste",
    "public_transport": "stop_position",
    "wheelchair": "yes"
  }
},
{
  "type": "node",
  "id": 473349898,
  "lat": 45.1259478,
  "lon": 5.6712801,
  "tags": {
    "bus": "yes",
    "highway": "bus_stop",
    "name": "Furonnières",
    "public_transport": "stop_position",
    "wheelchair": "yes"
  }
},
{
  "type": "node",
  "id": 473349903,
  "lat": 45.1292645,
  "lon": 5.6712658,
  "tags": {
    "bus": "yes",
    "highway": "bus_stop",
    "name": "La Croix Rolland",
    "public_transport": "stop_position",
    "wheelchair": "no"
  }
},
{
  "type": "node",
  "id": 473349904,
  "lat": 45.1294044,
  "lon": 5.6712687,
  "tags": {
    "bus": "no",
    "highway": "bus_stop",
    "name": "La Croix Rolland",
    "public_transport": "stop_position",
    "wheelchair": "no"
  }
},
{
  "type": "node",
  "id": 473349906,
  "lat": 45.1401381,
  "lon": 5.6731965,
  "tags": {
    "bus": "yes",
    "highway": "bus_stop",
    "name": "Col de Comboire",
    "public_transport": "stop_position",
    "wheelchair": "limited"
  }
},
{
  "type": "node",
  "id": 473349908,
  "lat": 45.1400459,
  "lon": 5.6731637,
  "tags": {
    "bus": "yes",
    "highway": "bus_stop",
    "name": "Col de Comboire",
    "public_transport": "stop_position",
    "wheelchair": "limited"
  }
},
{
  "type": "node",
  "id": 473349914,
  "lat": 45.1512012,
  "lon": 5.6798808,
  "tags": {
    "bus": "yes",
    "highway": "bus_stop",
    "name": "Pré Nouvel",
    "public_transport": "stop_position",
    "wheelchair": "limited"
  }
},
{
  "type": "node",
  "id": 473349916,
  "lat": 45.1538544,
  "lon": 5.6799891,
  "tags": {
    "bus": "yes",
    "highway": "bus_stop",
    "name": "L'Argoud",
    "ne": "TAG",
    "public_transport": "stop_position",
    "wheelchair": "limited"
  }
},
{
  "type": "node",
  "id": 473349917,
  "lat": 45.1543551,
  "lon": 5.6802694,
  "tags": {
    "bus": "yes",
    "highway": "bus_stop",
    "name": "L'Argoud",
    "ne": "TAG",
    "public_transport": "stop_position",
    "wheelchair": "yes"
  }
},
{
  "type": "node",
  "id": 473349918,
  "lat": 45.1562814,
  "lon": 5.6813003,
  "tags": {
    "bus": "yes",
    "highway": "bus_stop",
    "name": "Place du Village",
    "public_transport": "stop_position",
    "wheelchair": "yes"
  }
},
{
  "type": "node",
  "id": 473349919,
  "lat": 45.1563935,
  "lon": 5.6813710,
  "tags": {
    "bus": "yes",
    "highway": "bus_stop",
    "name": "Place du Village",
    "public_transport": "stop_position",
    "wheelchair": "yes"
  }
},
{
  "type": "node",
  "id": 473349920,
  "lat": 45.1597637,
  "lon": 5.6817547,
  "tags": {
    "bus": "yes",
    "highway": "bus_stop",
    "name": "Ancienne Gare",
    "public_transport": "stop_position",
    "wheelchair": "no"
  }
},
{
  "type": "node",
  "id": 473349926,
  "lat": 45.1613236,
  "lon": 5.6829661,
  "tags": {
    "bus": "yes",
    "highway": "bus_stop",
    "name": "L'Agneau",
    "public_transport": "stop_position",
    "wheelchair": "yes"
  }
},
{
  "type": "node",
  "id": 473349930,
  "lat": 45.1590050,
  "lon": 5.6832629,
  "tags": {
    "bus": "yes",
    "highway": "bus_stop",
    "name": "Beauvoir",
    "public_transport": "stop_position",
    "wheelchair": "no"
  }
},
{
  "type": "node",
  "id": 473349932,
  "lat": 45.1619549,
  "lon": 5.6827522,
  "tags": {
    "bus": "yes",
    "highway": "bus_stop",
    "name": "L'Agneau",
    "public_transport": "stop_position",
    "wheelchair": "limited"
  }
},
{
  "type": "node",
  "id": 473349937,
  "lat": 45.1628011,
  "lon": 5.6853396,
  "tags": {
    "bus": "yes",
    "highway": "bus_stop",
    "name": "Parc François Mitterrand",
    "public_transport": "stop_position",
    "wheelchair": "yes"
  }
},
{
  "type": "node",
  "id": 473349939,
  "lat": 45.1628810,
  "lon": 5.6853064,
  "tags": {
    "bus": "yes",
    "highway": "bus_stop",
    "name": "Parc François Mitterrand",
    "public_transport": "stop_position",
    "wheelchair": "yes"
  }
},
{
  "type": "node",
  "id": 473349941,
  "lat": 45.1648467,
  "lon": 5.6891868,
  "tags": {
    "bus": "yes",
    "highway": "bus_stop",
    "name": "Marc Sangnier",
    "public_transport": "stop_position",
    "wheelchair": "yes"
  }
},
{
  "type": "node",
  "id": 473349942,
  "lat": 45.1649335,
  "lon": 5.6891570,
  "tags": {
    "bus": "yes",
    "highway": "bus_stop",
    "name": "Marc Sangnier",
    "public_transport": "stop_position",
    "wheelchair": "yes"
  }
},
{
  "type": "node",
  "id": 473349951,
  "lat": 45.1596091,
  "lon": 5.6897490,
  "tags": {
    "bus": "yes",
    "highway": "bus_stop",
    "name": "La Baume",
    "public_transport": "stop_position",
    "wheelchair": "yes"
  }
},
{
  "type": "node",
  "id": 473349952,
  "lat": 45.1605046,
  "lon": 5.6899195,
  "tags": {
    "bus": "yes",
    "highway": "bus_stop",
    "name": "La Baume",
    "public_transport": "stop_position",
    "wheelchair": "yes"
  }
},
{
  "type": "node",
  "id": 473349954,
  "lat": 45.1574776,
  "lon": 5.6899062,
  "tags": {
    "bus": "yes",
    "highway": "bus_stop",
    "name": "Le Bournet",
    "public_transport": "stop_position",
    "wheelchair": "yes"
  }
},
{
  "type": "node",
  "id": 473349956,
  "lat": 45.1546630,
  "lon": 5.6894221,
  "tags": {
    "bus": "yes",
    "highway": "bus_stop",
    "name": "Le Hameau des Chaumières",
    "public_transport": "stop_position",
    "wheelchair": "yes"
  }
},
{
  "type": "node",
  "id": 473349975,
  "lat": 45.1521226,
  "lon": 5.6890559,
  "tags": {
    "bus": "yes",
    "highway": "bus_stop",
    "name": "Les Nalettes",
    "public_transport": "stop_position",
    "wheelchair": "yes"
  }
},
{
  "type": "node",
  "id": 473364882,
  "lat": 45.1693220,
  "lon": 5.7128372,
  "tags": {
    "bus": "yes",
    "highway": "bus_stop",
    "name": "Louise Michel",
    "network": "TAG",
    "public_transport": "stop_position",
    "wheelchair": "yes"
  }
},
{
  "type": "node",
  "id": 473364885,
  "lat": 45.1728743,
  "lon": 5.7140532,
  "tags": {
    "bus": "yes",
    "highway": "bus_stop",
    "name": "Vaucanson",
    "public_transport": "stop_position",
    "wheelchair": "limited"
  }
},
{
  "type": "node",
  "id": 473364889,
  "lat": 45.1834746,
  "lon": 5.7176111,
  "tags": {
    "bus": "yes",
    "highway": "bus_stop",
    "name": "L'Aigle",
    "public_transport": "stop_position",
    "wheelchair": "limited"
  }
},
{
  "type": "node",
  "id": 473851830,
  "lat": 45.2295517,
  "lon": 5.6492688,
  "tags": {
    "bus": "yes",
    "highway": "bus_stop",
    "name": "Praparis Usine",
    "public_transport": "stop_position",
    "wheelchair": "yes"
  }
},
{
  "type": "node",
  "id": 473851835,
  "lat": 45.2322079,
  "lon": 5.6449649,
  "tags": {
    "bus": "yes",
    "highway": "bus_stop",
    "name": "Praparis les Roses",
    "public_transport": "stop_position",
    "wheelchair": "yes"
  }
},
{
  "type": "node",
  "id": 473851844,
  "lat": 45.2388831,
  "lon": 5.6342311,
  "tags": {
    "bus": "no",
    "highway": "bus_stop",
    "name": "Saint-Jean",
    "public_transport": "stop_position",
    "wheelchair": "no"
  }
},
{
  "type": "node",
  "id": 473851853,
  "lat": 45.2560892,
  "lon": 5.6281546,
  "tags": {
    "bench": "no",
    "bin": "no",
    "bus": "yes",
    "highway": "platform",
    "name": "La Cuche",
    "operator": "TAG",
    "public_transport": "platform",
    "shelter": "no",
    "wheelchair": "no"
  }
},
{
  "type": "node",
  "id": 473851856,
  "lat": 45.2596505,
  "lon": 5.6260958,
  "tags": {
    "bus": "yes",
    "highway": "bus_stop",
    "name": "Îles Cordées",
    "public_transport": "stop_position",
    "wheelchair": "yes"
  }
},
{
  "type": "node",
  "id": 473851858,
  "lat": 45.2620727,
  "lon": 5.6246661,
  "tags": {
    "bus": "yes",
    "highway": "bus_stop",
    "name": "Perrières",
    "public_transport": "stop_position",
    "wheelchair": "no"
  }
},
{
  "type": "node",
  "id": 473851867,
  "lat": 45.2697644,
  "lon": 5.6182100,
  "tags": {
    "bus": "yes",
    "highway": "bus_stop",
    "name": "La Rive",
    "public_transport": "stop_position",
    "wheelchair": "yes"
  }
},
{
  "type": "node",
  "id": 473851871,
  "lat": 45.2722043,
  "lon": 5.6156103,
  "tags": {
    "bus": "yes",
    "highway": "bus_stop",
    "name": "Église",
    "public_transport": "stop_position",
    "wheelchair": "yes"
  }
},
{
  "type": "node",
  "id": 473851886,
  "lat": 45.2735292,
  "lon": 5.6047697,
  "tags": {
    "bus": "yes",
    "highway": "bus_stop",
    "name": "Châtelard",
    "public_transport": "stop_position",
    "wheelchair": "no"
  }
},
{
  "type": "node",
  "id": 473851893,
  "lat": 45.2763699,
  "lon": 5.6110202,
  "tags": {
    "bus": "yes",
    "highway": "bus_stop",
    "name": "Les Marronniers",
    "public_transport": "stop_position",
    "wheelchair": "no"
  }
},
{
  "type": "node",
  "id": 473851898,
  "lat": 45.2724479,
  "lon": 5.6153186,
  "tags": {
    "bus": "yes",
    "highway": "bus_stop",
    "name": "Église",
    "public_transport": "stop_position",
    "wheelchair": "yes"
  }
},
{
  "type": "node",
  "id": 473851899,
  "lat": 45.2697351,
  "lon": 5.6179984,
  "tags": {
    "bus": "yes",
    "highway": "bus_stop",
    "name": "La Rive",
    "public_transport": "stop_position",
    "wheelchair": "yes"
  }
},
{
  "type": "node",
  "id": 473851900,
  "lat": 45.2682099,
  "lon": 5.6193800,
  "tags": {
    "bus": "yes",
    "highway": "bus_stop",
    "name": "Les Echalières",
    "public_transport": "stop_position",
    "wheelchair": "limited"
  }
},
{
  "type": "node",
  "id": 473851902,
  "lat": 45.2615610,
  "lon": 5.6249615,
  "tags": {
    "bus": "yes",
    "highway": "bus_stop",
    "name": "Perrières",
    "public_transport": "stop_position",
    "wheelchair": "yes"
  }
},
{
  "type": "node",
  "id": 473851903,
  "lat": 45.2595483,
  "lon": 5.6260278,
  "tags": {
    "bus": "yes",
    "highway": "bus_stop",
    "name": "Îles Cordées",
    "public_transport": "stop_position",
    "wheelchair": "yes"
  }
},
{
  "type": "node",
  "id": 473851904,
  "lat": 45.2560370,
  "lon": 5.6280970,
  "tags": {
    "bus": "yes",
    "highway": "bus_stop",
    "name": "La Cuche",
    "public_transport": "stop_position",
    "wheelchair": "no"
  }
},
{
  "type": "node",
  "id": 473851905,
  "lat": 45.2498232,
  "lon": 5.6316487,
  "tags": {
    "bus": "yes",
    "highway": "bus_stop",
    "name": "Le Ruisset",
    "public_transport": "stop_position",
    "wheelchair": "no"
  }
},
{
  "type": "node",
  "id": 473851906,
  "lat": 45.2429088,
  "lon": 5.6321230,
  "tags": {
    "bus": "yes",
    "highway": "bus_stop",
    "name": "Bascule",
    "public_transport": "stop_position",
    "wheelchair": "yes"
  }
},
{
  "type": "node",
  "id": 473851910,
  "lat": 45.2383199,
  "lon": 5.6351358,
  "tags": {
    "bus": "yes",
    "highway": "bus_stop",
    "name": "Saint-Jean",
    "public_transport": "stop_position",
    "wheelchair": "yes"
  }
},
{
  "type": "node",
  "id": 473851911,
  "lat": 45.2364776,
  "lon": 5.6380440,
  "tags": {
    "bus": "yes",
    "highway": "bus_stop",
    "name": "Les Chaulnes",
    "public_transport": "stop_position",
    "wheelchair": "yes"
  }
},
{
  "type": "node",
  "id": 473851913,
  "lat": 45.2320400,
  "lon": 5.6452575,
  "tags": {
    "bus": "yes",
    "highway": "bus_stop",
    "name": "Praparis les Roses",
    "public_transport": "stop_position",
    "wheelchair": "yes"
  }
},
{
  "type": "node",
  "id": 473851914,
  "lat": 45.2292792,
  "lon": 5.6497210,
  "tags": {
    "bus": "yes",
    "highway": "bus_stop",
    "name": "Praparis Usine",
    "public_transport": "stop_position",
    "wheelchair": "yes"
  }
},
{
  "type": "node",
  "id": 473883898,
  "lat": 45.1822855,
  "lon": 5.7170250,
  "tags": {
    "bus": "yes",
    "highway": "bus_stop",
    "name": "L'Aigle",
    "public_transport": "stop_position",
    "wheelchair": "limited"
  }
},
{
  "type": "node",
  "id": 473975686,
  "lat": 45.2077496,
  "lon": 5.6800221,
  "tags": {
    "bus": "yes",
    "highway": "bus_stop",
    "name": "Maladière",
    "public_transport": "stop_position",
    "wheelchair": "yes"
  }
},
{
  "type": "node",
  "id": 473975689,
  "lat": 45.2050671,
  "lon": 5.6835273,
  "tags": {
    "bus": "yes",
    "highway": "bus_stop",
    "name": "Chamechaude",
    "public_transport": "stop_position",
    "wheelchair": "no"
  }
},
{
  "type": "node",
  "id": 473975703,
  "lat": 45.2027784,
  "lon": 5.6858092,
  "tags": {
    "bus": "yes",
    "highway": "bus_stop",
    "name": "La Sure",
    "public_transport": "stop_position",
    "wheelchair": "no"
  }
},
{
  "type": "node",
  "id": 473975706,
  "lat": 45.2014211,
  "lon": 5.6899136,
  "tags": {
    "bus": "yes",
    "highway": "bus_stop",
    "name": "Saint-Eynard",
    "public_transport": "stop_position",
    "wheelchair": "limited"
  }
},
{
  "type": "node",
  "id": 473975709,
  "lat": 45.2010980,
  "lon": 5.6901986,
  "tags": {
    "bus": "yes",
    "highway": "bus_stop",
    "name": "Saint-Eynard",
    "public_transport": "stop_position",
    "wheelchair": "limited"
  }
},
{
  "type": "node",
  "id": 473975711,
  "lat": 45.1978728,
  "lon": 5.6888391,
  "tags": {
    "bus": "yes",
    "highway": "bus_stop",
    "name": "Jules Guesde",
    "public_transport": "stop_position",
    "wheelchair": "yes"
  }
},
{
  "type": "node",
  "id": 473975714,
  "lat": 45.1978988,
  "lon": 5.6886507,
  "tags": {
    "bus": "yes",
    "highway": "bus_stop",
    "name": "Jules Guesde",
    "public_transport": "stop_position",
    "wheelchair": "yes"
  }
},
{
  "type": "node",
  "id": 473975765,
  "lat": 45.1970829,
  "lon": 5.6852478,
  "tags": {
    "bus": "yes",
    "highway": "bus_stop",
    "name": "Les Ecrins",
    "public_transport": "stop_position",
    "wheelchair": "yes"
  }
},
{
  "type": "node",
  "id": 473975771,
  "lat": 45.1972222,
  "lon": 5.6844133,
  "tags": {
    "bus": "yes",
    "highway": "bus_stop",
    "name": "Les Ecrins",
    "public_transport": "stop_position",
    "wheelchair": "yes"
  }
},
{
  "type": "node",
  "id": 473975779,
  "lat": 45.1954159,
  "lon": 5.6825118,
  "tags": {
    "bus": "yes",
    "highway": "bus_stop",
    "name": "Edmond Vigne",
    "public_transport": "stop_position",
    "wheelchair": "yes"
  }
},
{
  "type": "node",
  "id": 473975785,
  "lat": 45.1950034,
  "lon": 5.6827990,
  "tags": {
    "bus": "yes",
    "highway": "bus_stop",
    "name": "Edmond Vigne",
    "public_transport": "stop_position",
    "wheelchair": "yes"
  }
},
{
  "type": "node",
  "id": 473975790,
  "lat": 45.1940231,
  "lon": 5.6799670,
  "tags": {
    "bus": "yes",
    "highway": "bus_stop",
    "name": "Charles Michels",
    "public_transport": "stop_position",
    "wheelchair": "yes"
  }
},
{
  "type": "node",
  "id": 473975823,
  "lat": 45.1929577,
  "lon": 5.6778724,
  "tags": {
    "bus": "yes",
    "highway": "bus_stop",
    "name": "Ancienne Mairie",
    "public_transport": "stop_position",
    "wheelchair": "yes"
  }
},
{
  "type": "node",
  "id": 473975828,
  "lat": 45.1927387,
  "lon": 5.6780969,
  "tags": {
    "bus": "yes",
    "highway": "bus_stop",
    "name": "Ancienne Mairie",
    "public_transport": "stop_position",
    "wheelchair": "yes"
  }
},
{
  "type": "node",
  "id": 473975836,
  "lat": 45.1899841,
  "lon": 5.6823410,
  "tags": {
    "bus": "yes",
    "highway": "bus_stop",
    "name": "Jean Prévost",
    "public_transport": "stop_position",
    "wheelchair": "yes"
  }
},
{
  "type": "node",
  "id": 473975850,
  "lat": 45.1895526,
  "lon": 5.6828009,
  "tags": {
    "bus": "yes",
    "highway": "bus_stop",
    "name": "Jean Prévost",
    "public_transport": "stop_position",
    "wheelchair": "yes"
  }
},
{
  "type": "node",
  "id": 473975896,
  "lat": 45.1867398,
  "lon": 5.6870762,
  "tags": {
    "bus": "yes",
    "highway": "bus_stop",
    "name": "Parc Karl Marx",
    "public_transport": "stop_position",
    "wheelchair": "yes"
  }
},
{
  "type": "node",
  "id": 473975900,
  "lat": 45.1865142,
  "lon": 5.6872785,
  "tags": {
    "bus": "yes",
    "highway": "bus_stop",
    "name": "Parc Karl Marx",
    "public_transport": "stop_position",
    "wheelchair": "yes"
  }
},
{
  "type": "node",
  "id": 473975906,
  "lat": 45.1842130,
  "lon": 5.6915256,
  "tags": {
    "bus": "yes",
    "highway": "bus_stop",
    "name": "Aristide Bergès",
    "public_transport": "stop_position",
    "wheelchair": "yes"
  }
},
{
  "type": "node",
  "id": 473975912,
  "lat": 45.1842677,
  "lon": 5.6918778,
  "tags": {
    "bus": "yes",
    "highway": "bus_stop",
    "name": "Aristide Bergès",
    "public_transport": "stop_position",
    "wheelchair": "yes"
  }
},
{
  "type": "node",
  "id": 473975982,
  "lat": 45.1821709,
  "lon": 5.6887544,
  "tags": {
    "bus": "yes",
    "highway": "bus_stop",
    "name": "Valisère",
    "public_transport": "stop_position",
    "wheelchair": "no"
  }
},
{
  "type": "node",
  "id": 473975990,
  "lat": 45.1821475,
  "lon": 5.6886631,
  "tags": {
    "bus": "yes",
    "highway": "bus_stop",
    "name": "Valisère",
    "public_transport": "stop_position",
    "wheelchair": "limited"
  }
},
{
  "type": "node",
  "id": 473975996,
  "lat": 45.1804664,
  "lon": 5.6875153,
  "tags": {
    "bus": "yes",
    "highway": "bus_stop",
    "name": "Perrières-Vouillands",
    "public_transport": "stop_position",
    "wheelchair": "yes"
  }
},
{
  "type": "node",
  "id": 473976010,
  "lat": 45.1797818,
  "lon": 5.6874242,
  "tags": {
    "bus": "yes",
    "highway": "bus_stop",
    "name": "Perrières-Vouillands",
    "public_transport": "stop_position",
    "wheelchair": "yes"
  }
},
{
  "type": "node",
  "id": 473976018,
  "lat": 45.1770771,
  "lon": 5.6867492,
  "tags": {
    "bus": "yes",
    "highway": "bus_stop",
    "name": "Belvédère",
    "public_transport": "stop_position",
    "wheelchair": "yes"
  }
},
{
  "type": "node",
  "id": 473976024,
  "lat": 45.1769671,
  "lon": 5.6867212,
  "tags": {
    "bus": "yes",
    "highway": "bus_stop",
    "name": "Belvédère",
    "public_transport": "stop_position",
    "wheelchair": "yes"
  }
},
{
  "type": "node",
  "id": 473976039,
  "lat": 45.1681636,
  "lon": 5.6788467,
  "tags": {
    "bus": "yes",
    "highway": "bus_stop",
    "name": "Village",
    "public_transport": "stop_position",
    "shelter": "yes"
  }
},
{
  "type": "node",
  "id": 473976058,
  "lat": 45.1705265,
  "lon": 5.6807334,
  "tags": {
    "bus": "yes",
    "highway": "bus_stop",
    "name": "Centre Village",
    "public_transport": "stop_position",
    "wheelchair": "limited"
  }
},
{
  "type": "node",
  "id": 473976065,
  "lat": 45.1801373,
  "lon": 5.6935353,
  "tags": {
    "highway": "bus_stop",
    "name": "Edmond Aguiard",
    "public_transport": "stop_position",
    "route_ref": "55",
    "shelter": "yes",
    "wheelchair": "yes"
  }
},
{
  "type": "node",
  "id": 473976071,
  "lat": 45.1800170,
  "lon": 5.6936647,
  "tags": {
    "highway": "bus_stop",
    "name": "Edmond Aguiard",
    "public_transport": "stop_position",
    "route_ref": "55",
    "shelter": "yes",
    "wheelchair": "yes"
  }
},
{
  "type": "node",
  "id": 474770726,
  "lat": 45.2030909,
  "lon": 5.7145445,
  "tags": {
    "bus": "no",
    "highway": "bus_stop",
    "name": "16 Août 1944",
    "public_transport": "stop_position",
    "wheelchair": "yes"
  }
},
{
  "type": "node",
  "id": 474770738,
  "lat": 45.2065169,
  "lon": 5.7088024,
  "tags": {
    "bus": "yes",
    "highway": "bus_stop",
    "name": "Conrad Kilian",
    "public_transport": "stop_position",
    "wheelchair": "yes"
  }
},
{
  "type": "node",
  "id": 474770743,
  "lat": 45.2105324,
  "lon": 5.7028733,
  "tags": {
    "bus": "yes",
    "highway": "bus_stop",
    "name": "La Balme",
    "public_transport": "stop_position",
    "wheelchair": "limited"
  }
},
{
  "type": "node",
  "id": 474770746,
  "lat": 45.2135086,
  "lon": 5.6993802,
  "tags": {
    "bus": "yes",
    "highway": "bus_stop",
    "name": "Buisserate",
    "public_transport": "stop_position",
    "wheelchair": "limited"
  }
},
{
  "type": "node",
  "id": 474770748,
  "lat": 45.2149976,
  "lon": 5.6960773,
  "tags": {
    "bus": "yes",
    "highway": "bus_stop",
    "name": "Le Néron",
    "public_transport": "stop_position",
    "wheelchair": "limited"
  }
},
{
  "type": "node",
  "id": 474770750,
  "lat": 45.2169988,
  "lon": 5.6942255,
  "tags": {
    "bus": "yes",
    "highway": "bus_stop",
    "name": "Basse Buisserate",
    "public_transport": "stop_position",
    "wheelchair": "limited"
  }
},
{
  "type": "node",
  "id": 474770755,
  "lat": 45.2194540,
  "lon": 5.6920094,
  "tags": {
    "bus": "yes",
    "highway": "bus_stop",
    "name": "Trois Ponts",
    "public_transport": "stop_position",
    "wheelchair": "limited"
  }
},
{
  "type": "node",
  "id": 474770757,
  "lat": 45.2236235,
  "lon": 5.6885355,
  "tags": {
    "bus": "yes",
    "highway": "bus_stop",
    "name": "Prédieu",
    "public_transport": "stop_position",
    "wheelchair": "limited"
  }
},
{
  "type": "node",
  "id": 474770758,
  "lat": 45.2262466,
  "lon": 5.6861047,
  "tags": {
    "bus": "yes",
    "highway": "bus_stop",
    "name": "Le Muret",
    "public_transport": "stop_position",
    "wheelchair": "limited"
  }
},
{
  "type": "node",
  "id": 474770761,
  "lat": 45.2283504,
  "lon": 5.6842192,
  "tags": {
    "bus": "yes",
    "highway": "bus_stop",
    "name": "Moutonnées",
    "public_transport": "stop_position",
    "wheelchair": "limited"
  }
},
{
  "type": "node",
  "id": 474770763,
  "lat": 45.2304676,
  "lon": 5.6819641,
  "tags": {
    "bus": "yes",
    "highway": "bus_stop",
    "name": "Pont de Vence",
    "public_transport": "stop_position",
    "wheelchair": "limited"
  }
},
{
  "type": "node",
  "id": 474770773,
  "lat": 45.2331180,
  "lon": 5.6786227,
  "tags": {
    "bus": "yes",
    "highway": "bus_stop",
    "name": "Saint-Égrève - Mairie",
    "public_transport": "stop_position",
    "wheelchair": "limited"
  }
},
{
  "type": "node",
  "id": 474770774,
  "lat": 45.2354033,
  "lon": 5.6759412,
  "tags": {
    "bus": "yes",
    "highway": "bus_stop",
    "name": "La Pinéa",
    "public_transport": "stop_position",
    "wheelchair": "limited"
  }
},
{
  "type": "node",
  "id": 474770778,
  "lat": 45.2424532,
  "lon": 5.6710827,
  "tags": {
    "bus": "yes",
    "highway": "bus_stop",
    "name": "Karben",
    "public_transport": "stop_position",
    "wheelchair": "limited"
  }
},
{
  "type": "node",
  "id": 474770781,
  "lat": 45.2465765,
  "lon": 5.6677357,
  "tags": {
    "bus": "yes",
    "highway": "bus_stop",
    "name": "Rif Tronchard",
    "public_transport": "stop_position",
    "wheelchair": "limited"
  }
},
{
  "type": "node",
  "id": 474770785,
  "lat": 45.2500912,
  "lon": 5.6652700,
  "tags": {
    "bus": "yes",
    "highway": "bus_stop",
    "name": "LEP Françoise Dolto",
    "public_transport": "stop_position",
    "wheelchair": "limited"
  }
},
{
  "type": "node",
  "id": 474770787,
  "lat": 45.2540521,
  "lon": 5.6622434,
  "tags": {
    "bus": "no",
    "highway": "bus_stop",
    "name": "Résidence Mutualiste",
    "public_transport": "stop_position",
    "wheelchair": "limited"
  }
},
{
  "type": "node",
  "id": 474770789,
  "lat": 45.2582089,
  "lon": 5.6594040,
  "tags": {
    "bus": "yes",
    "highway": "bus_stop",
    "name": "Croix de la Rochette",
    "public_transport": "stop_position",
    "wheelchair": "yes"
  }
},
{
  "type": "node",
  "id": 474770803,
  "lat": 45.2530180,
  "lon": 5.6628193,
  "tags": {
    "bus": "yes",
    "highway": "bus_stop",
    "name": "Résidence Mutualiste",
    "public_transport": "stop_position",
    "wheelchair": "limited"
  }
},
{
  "type": "node",
  "id": 474770805,
  "lat": 45.2503720,
  "lon": 5.6649361,
  "tags": {
    "bus": "yes",
    "highway": "bus_stop",
    "name": "LEP Françoise Dolto",
    "public_transport": "stop_position",
    "wheelchair": "limited"
  }
},
{
  "type": "node",
  "id": 474770808,
  "lat": 45.2462871,
  "lon": 5.6678740,
  "tags": {
    "bus": "yes",
    "highway": "bus_stop",
    "name": "Rif Tronchard",
    "public_transport": "stop_position",
    "wheelchair": "limited"
  }
},
{
  "type": "node",
  "id": 474770809,
  "lat": 45.2421305,
  "lon": 5.6711992,
  "tags": {
    "bus": "yes",
    "highway": "bus_stop",
    "name": "Karben",
    "public_transport": "stop_position",
    "wheelchair": "limited"
  }
},
{
  "type": "node",
  "id": 474770810,
  "lat": 45.2402107,
  "lon": 5.6726758,
  "tags": {
    "bus": "yes",
    "highway": "bus_stop",
    "name": "Les Bonnais",
    "public_transport": "stop_position",
    "wheelchair": "yes"
  }
},
{
  "type": "node",
  "id": 474770811,
  "lat": 45.2353275,
  "lon": 5.6760163,
  "tags": {
    "bus": "yes",
    "highway": "bus_stop",
    "name": "La Pinéa",
    "public_transport": "stop_position",
    "wheelchair": "limited"
  }
},
{
  "type": "node",
  "id": 474770813,
  "lat": 45.2329170,
  "lon": 5.6788983,
  "tags": {
    "bus": "yes",
    "highway": "bus_stop",
    "name": "Saint-Égrève - Mairie",
    "public_transport": "stop_position",
    "wheelchair": "limited"
  }
},
{
  "type": "node",
  "id": 474770814,
  "lat": 45.2299452,
  "lon": 5.6825366,
  "tags": {
    "bus": "yes",
    "highway": "bus_stop",
    "name": "Pont de Vence",
    "public_transport": "stop_position",
    "wheelchair": "limited"
  }
},
{
  "type": "node",
  "id": 474770815,
  "lat": 45.2280370,
  "lon": 5.6844057,
  "tags": {
    "bus": "yes",
    "highway": "bus_stop",
    "name": "Moutonnées",
    "public_transport": "stop_position",
    "wheelchair": "limited"
  }
},
{
  "type": "node",
  "id": 474770816,
  "lat": 45.2258441,
  "lon": 5.6863499,
  "tags": {
    "bus": "yes",
    "highway": "bus_stop",
    "name": "Le Muret",
    "public_transport": "stop_position",
    "wheelchair": "limited"
  }
},
{
  "type": "node",
  "id": 474770817,
  "lat": 45.2229177,
  "lon": 5.6889863,
  "tags": {
    "bus": "yes",
    "highway": "bus_stop",
    "name": "Prédieu",
    "public_transport": "stop_position",
    "wheelchair": "limited"
  }
},
{
  "type": "node",
  "id": 474770818,
  "lat": 45.2198223,
  "lon": 5.6916266,
  "tags": {
    "bus": "yes",
    "highway": "bus_stop",
    "name": "Trois Ponts",
    "public_transport": "stop_position",
    "wheelchair": "limited"
  }
},
{
  "type": "node",
  "id": 474770820,
  "lat": 45.2169476,
  "lon": 5.6941567,
  "tags": {
    "bus": "yes",
    "highway": "bus_stop",
    "name": "Basse Buisserate",
    "public_transport": "stop_position",
    "wheelchair": "limited"
  }
},
{
  "type": "node",
  "id": 474770822,
  "lat": 45.2134045,
  "lon": 5.6995646,
  "tags": {
    "bus": "yes",
    "highway": "bus_stop",
    "name": "Buisserate",
    "public_transport": "stop_position",
    "wheelchair": "limited"
  }
},
{
  "type": "node",
  "id": 474770824,
  "lat": 45.2083175,
  "lon": 5.7066109,
  "tags": {
    "bus": "yes",
    "highway": "bus_stop",
    "name": "Mairie de Saint-Matin-le-Vinoux",
    "public_transport": "stop_position",
    "wheelchair": "limited"
  }
},
{
  "type": "node",
  "id": 474770825,
  "lat": 45.2059254,
  "lon": 5.7094540,
  "tags": {
    "bus": "yes",
    "highway": "bus_stop",
    "name": "Conrad Kilian",
    "public_transport": "stop_position",
    "wheelchair": "yes"
  }
},
{
  "type": "node",
  "id": 474770826,
  "lat": 45.2031666,
  "lon": 5.7144377,
  "tags": {
    "bus": "yes",
    "highway": "bus_stop",
    "name": "16 Août 1944",
    "public_transport": "stop_position",
    "wheelchair": "yes"
  }
},
{
  "type": "node",
  "id": 474782376,
  "lat": 45.2445627,
  "lon": 5.6751384,
  "tags": {
    "bus": "yes",
    "highway": "bus_stop",
    "name": "Rochepleine",
    "public_transport": "stop_position",
    "wheelchair": "yes"
  }
},
{
  "type": "node",
  "id": 474827212,
  "lat": 45.2354781,
  "lon": 5.6698838,
  "tags": {
    "bus": "yes",
    "highway": "bus_stop",
    "name": "La Biole - Gare",
    "public_transport": "stop_position",
    "wheelchair": "no"
  }
},
{
  "type": "node",
  "id": 474827213,
  "lat": 45.2352549,
  "lon": 5.6695772,
  "tags": {
    "bus": "yes",
    "highway": "bus_stop",
    "name": "La Biole - Gare",
    "public_transport": "stop_position",
    "wheelchair": "no"
  }
},
{
  "type": "node",
  "id": 474827214,
  "lat": 45.2399815,
  "lon": 5.6664921,
  "tags": {
    "bus": "yes",
    "highway": "bus_stop",
    "name": "Cap 38",
    "public_transport": "stop_position",
    "wheelchair": "yes"
  }
},
{
  "type": "node",
  "id": 474827216,
  "lat": 45.2401608,
  "lon": 5.6661838,
  "tags": {
    "bus": "yes",
    "highway": "bus_stop",
    "name": "Cap 38",
    "public_transport": "stop_position",
    "wheelchair": "yes"
  }
},
{
  "type": "node",
  "id": 474827225,
  "lat": 45.2429232,
  "lon": 5.6713366,
  "tags": {
    "bus": "yes",
    "highway": "bus_stop",
    "name": "Karben",
    "public_transport": "stop_position",
    "wheelchair": "yes"
  }
},
{
  "type": "node",
  "id": 474827226,
  "lat": 45.2429673,
  "lon": 5.6712148,
  "tags": {
    "bus": "yes",
    "highway": "bus_stop",
    "name": "Karben",
    "public_transport": "stop_position",
    "wheelchair": "yes"
  }
},
{
  "type": "node",
  "id": 474827235,
  "lat": 45.2303808,
  "lon": 5.6834809,
  "tags": {
    "bus": "yes",
    "highway": "bus_stop",
    "name": "Pont de Vence",
    "public_transport": "stop_position",
    "wheelchair": "yes"
  }
},
{
  "type": "node",
  "id": 474827239,
  "lat": 45.2331878,
  "lon": 5.6860255,
  "tags": {
    "bus": "yes",
    "highway": "bus_stop",
    "name": "Visancourt",
    "public_transport": "stop_position",
    "wheelchair": "yes"
  }
},
{
  "type": "node",
  "id": 474827241,
  "lat": 45.2348877,
  "lon": 5.6876397,
  "tags": {
    "bus": "yes",
    "highway": "bus_stop",
    "name": "Cuvilleux",
    "public_transport": "stop_position",
    "wheelchair": "yes"
  }
},
{
  "type": "node",
  "id": 474827243,
  "lat": 45.2379670,
  "lon": 5.6886381,
  "tags": {
    "bus": "yes",
    "highway": "bus_stop",
    "name": "La Monta",
    "public_transport": "stop_position",
    "wheelchair": "yes"
  }
},
{
  "type": "node",
  "id": 474827245,
  "lat": 45.2401355,
  "lon": 5.6838661,
  "tags": {
    "bus": "yes",
    "highway": "bus_stop",
    "name": "Église",
    "public_transport": "stop_position",
    "wheelchair": "yes"
  }
},
{
  "type": "node",
  "id": 474827246,
  "lat": 45.2381746,
  "lon": 5.6805586,
  "tags": {
    "bus": "yes",
    "highway": "bus_stop",
    "name": "Barnave",
    "public_transport": "stop_position",
    "wheelchair": "yes"
  }
},
{
  "type": "node",
  "id": 474827247,
  "lat": 45.2379800,
  "lon": 5.6807936,
  "tags": {
    "bus": "yes",
    "highway": "bus_stop",
    "name": "Barnave",
    "public_transport": "stop_position",
    "wheelchair": "yes"
  }
},
{
  "type": "node",
  "id": 474827248,
  "lat": 45.2401363,
  "lon": 5.6782222,
  "tags": {
    "bus": "yes",
    "highway": "bus_stop",
    "name": "Europe",
    "public_transport": "stop_position",
    "wheelchair": "yes"
  }
},
{
  "type": "node",
  "id": 474827249,
  "lat": 45.2406558,
  "lon": 5.6777844,
  "tags": {
    "bus": "yes",
    "highway": "bus_stop",
    "name": "Europe",
    "public_transport": "stop_position",
    "wheelchair": "yes"
  }
},