{
  "1027212572": {
    "accessible": 0,
    "city": "Varces-Alli\u00e8res-et-Risset",
    "id": 1027212572,
    "lat": 45.0898556,
    "lon": 5.6926065,
    "name": "Berliogni\u00e8re",
    "road": "Rue Honor\u00e9 de Balzac"
  },
  "1028230616": {
    "accessible": 1,
    "city": "Fontaine",
    "id": 1028230616,
    "lat": 45.1977457,
    "lon": 5.680262,
    "name": "Rue des Alpes",
    "road": "Rue Joseph Bertoin"
  },
  "103925967": {
    "accessible": 1,
    "city": "Varces-Alli\u00e8res-et-Risset",
    "id": 103925967,
    "lat": 45.0868471,
    "lon": 5.6831895,
    "name": "Varces - R\u00e9publique",
    "road": "D 1075"
  },
  "103925968": {
    "accessible": 1,
    "city": "Varces-Alli\u00e8res-et-Risset",
    "id": 103925968,
    "lat": 45.0863753,
    "lon": 5.6829499,
    "name": "Varces - R\u00e9publique",
    "road": "D 1075"
  },
  "104003299": {
    "accessible": 0,
    "city": "Varces-Alli\u00e8res-et-Risset",
    "id": 104003299,
    "lat": 45.0708227,
    "lon": 5.695351,
    "name": "Rue de la Sacristie",
    "road": "Route de la Sacristie"
  },
  "1042049467": {
    "accessible": 0,
    "city": "Vif",
    "id": 1042049467,
    "lat": 45.0608032,
    "lon": 5.6881818,
    "name": "Mas Garni",
    "road": "Rue du Stade"
  },
  "1051838960": {
    "accessible": 0,
    "city": "Grenoble",
    "id": 1051838960,
    "lat": 45.1948172,
    "lon": 5.7248056,
    "name": "Veyret",
    "road": "Rue Maurice Gignoux"
  },
  "1092258248": {
    "accessible": 0,
    "city": "Proveysieux",
    "id": 1092258248,
    "lat": 45.2580441,
    "lon": 5.6958162,
    "name": "Le Mollard",
    "road": "Route de Proveysieux"
  },
  "1092262397": {
    "accessible": 0,
    "city": "Proveysieux",
    "id": 1092262397,
    "lat": 45.2765163,
    "lon": 5.7071458,
    "name": "Pont du Gua",
    "road": "Route de Proveysieux"
  },
  "109581476": {
    "accessible": 0,
    "city": "Saint-Martin-le-Vinoux",
    "id": 109581476,
    "lat": 45.2268701,
    "lon": 5.7207836,
    "name": "Ripaill\u00e8re",
    "road": "Route de Narbonne"
  },
  "109581503": {
    "accessible": 0,
    "city": "Saint-Martin-le-Vinoux",
    "id": 109581503,
    "lat": 45.2250205,
    "lon": 5.7191849,
    "name": "Le Gatinet",
    "road": "Route de Narbonne"
  },
  "109581528": {
    "accessible": 0,
    "city": "Saint-Martin-le-Vinoux",
    "id": 109581528,
    "lat": 45.2231023,
    "lon": 5.717769,
    "name": "La Buisserati\u00e8re",
    "road": ""
  },
  "109581557": {
    "accessible": 0,
    "city": "Saint-Martin-le-Vinoux",
    "id": 109581557,
    "lat": 45.2200643,
    "lon": 5.7151183,
    "name": "La Rivoire",
    "road": ""
  },
  "109581593": {
    "accessible": 0,
    "city": "Saint-Martin-le-Vinoux",
    "id": 109581593,
    "lat": 45.2165067,
    "lon": 5.7121139,
    "name": "La Banchardi\u00e8re",
    "road": "Route de Narbonne"
  },
  "109581810": {
    "accessible": 0,
    "city": "Saint-Martin-le-Vinoux",
    "id": 109581810,
    "lat": 45.2146836,
    "lon": 5.7045047,
    "name": "L'Hermitage",
    "road": "Route de Narbonne"
  },
  "1106642": {
    "accessible": 0,
    "city": "Corenc",
    "id": 1106642,
    "lat": 45.2163858,
    "lon": 5.7538299,
    "name": "Monument",
    "road": "Chemin Charles Pajon"
  },
  "1110419160": {
    "accessible": 0,
    "city": "Sassenage",
    "id": 1110419160,
    "lat": 45.2100952,
    "lon": 5.6475199,
    "name": "Les C\u00f4tes",
    "road": "Rue Pierre Dalloz"
  },
  "1123336178": {
    "accessible": 1,
    "city": "Grenoble",
    "id": 1123336178,
    "lat": 45.1870187,
    "lon": 5.7444503,
    "name": "Flandrin - Valmy",
    "road": "Avenue Jules Flandrin"
  },
  "1123336180": {
    "accessible": 1,
    "city": "Grenoble",
    "id": 1123336180,
    "lat": 45.1870916,
    "lon": 5.7446478,
    "name": "Flandrin - Valmy",
    "road": "Avenue Jules Flandrin"
  },
  "1127873040": {
    "accessible": 1,
    "city": "Grenoble",
    "id": 1127873040,
    "lat": 45.1854003,
    "lon": 5.7314908,
    "name": "Chavant",
    "road": "Boulevard Mar\u00e9chal Lyautey"
  },
  "1139811225": {
    "accessible": 0,
    "city": "Vaulnaveys-le-Haut",
    "id": 1139811225,
    "lat": 45.1148319,
    "lon": 5.8077189,
    "name": "Marchandises",
    "road": "Avenue d'Uriage"
  },
  "1142238057": {
    "accessible": 0,
    "city": "Varces-Alli\u00e8res-et-Risset",
    "id": 1142238057,
    "lat": 45.0919958,
    "lon": 5.6746805,
    "name": "Les Tisserands",
    "road": "Rue de Mazeti\u00e8re"
  },
  "1145640125": {
    "accessible": 0,
    "city": "Venon",
    "id": 1145640125,
    "lat": 45.1699058,
    "lon": 5.8132204,
    "name": "Le Reynet",
    "road": "D 164"
  },
  "1145640160": {
    "accessible": 0,
    "city": "Venon",
    "id": 1145640160,
    "lat": 45.1700497,
    "lon": 5.8136536,
    "name": "Le Reynet",
    "road": "D 164"
  },
  "1150618349": {
    "accessible": 0,
    "city": "Venon",
    "id": 1150618349,
    "lat": 45.1710035,
    "lon": 5.8217683,
    "name": "Le Chapon",
    "road": "D 164"
  },
  "1152414448": {
    "accessible": 0,
    "city": "Bri\u00e9-et-Angonnes",
    "id": 1152414448,
    "lat": 45.1332941,
    "lon": 5.7747633,
    "name": "L'Enclos",
    "road": "Chemin de l'Enclos"
  },
  "1157938086": {
    "accessible": 0,
    "city": "Saint-Martin-d'Uriage",
    "id": 1157938086,
    "lat": 45.1439159,
    "lon": 5.8292362,
    "name": "Uriage - Gare",
    "road": ""
  },
  "1157938380": {
    "accessible": 0,
    "city": "Saint-Martin-d'Uriage",
    "id": 1157938380,
    "lat": 45.143956,
    "lon": 5.8294338,
    "name": "Uriage - Gare",
    "road": ""
  },
  "1184527608": {
    "accessible": 0,
    "city": "Vif",
    "id": 1184527608,
    "lat": 45.0668796,
    "lon": 5.6920844,
    "name": "La Plaine",
    "road": "Route de Fontagneux"
  },
  "1188875968": {
    "accessible": 1,
    "city": "Meylan",
    "id": 1188875968,
    "lat": 45.2184323,
    "lon": 5.7864737,
    "name": "Saint-Mury",
    "road": "D 1090"
  },
  "1196895096": {
    "accessible": 0,
    "city": "Veurey-Voroize",
    "id": 1196895096,
    "lat": 45.2744836,
    "lon": 5.6060584,
    "name": "Le Ch\u00e2teau",
    "road": "Chemin du Parc"
  },
  "1210298435": {
    "accessible": 0,
    "city": "Vaulnaveys-le-Bas",
    "id": 1210298435,
    "lat": 45.11169,
    "lon": 5.8049359,
    "name": "Maison Blanche",
    "road": "Avenue des Vaulnaveys"
  },
  "1237282666": {
    "accessible": 0,
    "city": "Grenoble",
    "id": 1237282666,
    "lat": 45.1911811,
    "lon": 5.7071114,
    "name": "Esclangon",
    "road": "Rue du Vercors"
  },
  "124164205": {
    "accessible": 0,
    "city": "Quaix-en-Chartreuse",
    "id": 124164205,
    "lat": 45.2539394,
    "lon": 5.7014654,
    "name": "Le Bas de Quaix",
    "road": "Route de Saint-\u00c9gr\u00e8ve"
  },
  "124164220": {
    "accessible": 0,
    "city": "Quaix-en-Chartreuse",
    "id": 124164220,
    "lat": 45.2538546,
    "lon": 5.7020741,
    "name": "Le Bas de Quaix",
    "road": "Chemin des Vignes"
  },
  "124164764": {
    "accessible": 0,
    "city": "Quaix-en-Chartreuse",
    "id": 124164764,
    "lat": 45.2563478,
    "lon": 5.7104145,
    "name": "Le Bas de Petesset",
    "road": "Route de Saint-\u00c9gr\u00e8ve"
  },
  "124164779": {
    "accessible": 0,
    "city": "Quaix-en-Chartreuse",
    "id": 124164779,
    "lat": 45.2563677,
    "lon": 5.7105735,
    "name": "Le Bas de Petesset",
    "road": "Route de Saint-\u00c9gr\u00e8ve"
  },
  "1256417369": {
    "accessible": 0,
    "city": "Proveysieux",
    "id": 1256417369,
    "lat": 45.2766215,
    "lon": 5.7167966,
    "name": "Planfay Combaleyre",
    "road": ""
  },
  "1271353624": {
    "accessible": 0,
    "city": "Corenc",
    "id": 1271353624,
    "lat": 45.23402,
    "lon": 5.7511019,
    "name": "Col de Vence",
    "road": "Route de la Chartreuse"
  },
  "1302652285": {
    "accessible": 0,
    "city": "Saint-Martin-le-Vinoux",
    "id": 1302652285,
    "lat": 45.2065436,
    "lon": 5.7174777,
    "name": "Les Fauvettes",
    "road": "Route de Cl\u00e9menci\u00e8res"
  },
  "1345302504": {
    "accessible": 0,
    "city": "Le Sappey-en-Chartreuse",
    "id": 1345302504,
    "lat": 45.2594996,
    "lon": 5.7771828,
    "name": "Le-Sappey-en-Chartreuse - Place",
    "road": "D 512"
  },
  "1345303773": {
    "accessible": 0,
    "city": "Corenc",
    "id": 1345303773,
    "lat": 45.2170218,
    "lon": 5.7536534,
    "name": "Monument",
    "road": "Route de la Chartreuse"
  },
  "1345303782": {
    "accessible": 0,
    "city": "La Tronche",
    "id": 1345303782,
    "lat": 45.215287,
    "lon": 5.7484617,
    "name": "Le Gorget",
    "road": "Route de la Chartreuse"
  },
  "135296": {
    "accessible": 1,
    "city": "Gi\u00e8res",
    "id": 135296,
    "lat": 45.1973809,
    "lon": 5.7762394,
    "name": "Universit\u00e9s - IUT - UFRAPS",
    "road": "Rue de la Piscine"
  },
  "136221": {
    "accessible": 1,
    "city": "Grenoble",
    "id": 136221,
    "lat": 45.1845898,
    "lon": 5.731746,
    "name": "Chavant",
    "road": "Rue Jean Bist\u00e9si"
  },
  "136597": {
    "accessible": 1,
    "city": "Sassenage",
    "id": 136597,
    "lat": 45.2067432,
    "lon": 5.6627922,
    "name": "Place de la Lib\u00e9ration",
    "road": "Avenue de Romans"
  },
  "137909": {
    "accessible": 0,
    "city": "Corenc",
    "id": 137909,
    "lat": 45.2272939,
    "lon": 5.7588083,
    "name": "Batonni\u00e8re",
    "road": "Chemin de B\u00e2tonni\u00e8re"
  },
  "138720": {
    "accessible": 0,
    "city": "Le Sappey-en-Chartreuse",
    "id": 138720,
    "lat": 45.2646809,
    "lon": 5.7742597,
    "name": "Les Jonquilles",
    "road": "D 512"
  },
  "138757": {
    "accessible": 0,
    "city": "Sarcenas",
    "id": 138757,
    "lat": 45.289975,
    "lon": 5.7670128,
    "name": "Col de Porte",
    "road": ""
  },
  "1397394585": {
    "accessible": 0,
    "city": "Jarrie",
    "id": 1397394585,
    "lat": 45.1161056,
    "lon": 5.7577809,
    "name": "Les Simanes",
    "road": ""
  },
  "14566552": {
    "accessible": 0,
    "city": "Saint-Martin-d'H\u00e8res",
    "id": 14566552,
    "lat": 45.1790245,
    "lon": 5.7549975,
    "name": "\u00c9douard Vaillant",
    "road": "Rue Paul Langevin"
  },
  "1526057690": {
    "accessible": 0,
    "city": "Proveysieux",
    "id": 1526057690,
    "lat": 45.2516807,
    "lon": 5.6949427,
    "name": "Garcini\u00e8re",
    "road": "Route de Proveysieux"
  },
  "1526058108": {
    "accessible": 0,
    "city": "Proveysieux",
    "id": 1526058108,
    "lat": 45.2778187,
    "lon": 5.7076266,
    "name": "Savoyardi\u00e8re",
    "road": ""
  },
  "1585851724": {
    "accessible": 1,
    "city": "Grenoble",
    "id": 1585851724,
    "lat": 45.1885135,
    "lon": 5.705847,
    "name": "Berriat - Le Magasin",
    "road": "Rue Amp\u00e8re"
  },
  "1598872041": {
    "accessible": 0,
    "city": "Veurey-Voroize",
    "id": 1598872041,
    "lat": 45.2748437,
    "lon": 5.6128044,
    "name": "Le B\u00e9ryl",
    "road": "Route de Montaud"
  },
  "1606930337": {
    "accessible": 0,
    "city": "Proveysieux",
    "id": 1606930337,
    "lat": 45.2807546,
    "lon": 5.7191747,
    "name": "Planfay",
    "road": ""
  },
  "164312441": {
    "accessible": 0,
    "city": "Saint-Martin-le-Vinoux",
    "id": 164312441,
    "lat": 45.2041323,
    "lon": 5.7154736,
    "name": "16 Ao\u00fbt 1944",
    "road": "Rue du 16 Ao\u00fbt 1944"
  },
  "1705910674": {
    "accessible": 0,
    "city": "Le Gua",
    "id": 1705910674,
    "lat": 45.0145839,
    "lon": 5.6138281,
    "name": "Les Faures",
    "road": "Chemin du Four Sarrat"
  },
  "1706173914": {
    "accessible": 1,
    "city": "\u00c9chirolles",
    "id": 1706173914,
    "lat": 45.1496805,
    "lon": 5.7188429,
    "name": "La Rampe - Centre-Ville",
    "road": "D 269Z"
  },
  "1738553910": {
    "accessible": 0,
    "city": "Proveysieux",
    "id": 1738553910,
    "lat": 45.2440858,
    "lon": 5.6925103,
    "name": "Bellevue",
    "road": "Route de Proveysieux"
  },
  "1747427949": {
    "accessible": 1,
    "city": "Grenoble",
    "id": 1747427949,
    "lat": 45.1634657,
    "lon": 5.7305153,
    "name": "Arlequin",
    "road": "Chemin du Tramway"
  },
  "1747427968": {
    "accessible": 1,
    "city": "Grenoble",
    "id": 1747427968,
    "lat": 45.1634677,
    "lon": 5.7305649,
    "name": "Arlequin",
    "road": "Chemin du Tramway"
  },
  "1794046736": {
    "accessible": 1,
    "city": "Grenoble",
    "id": 1794046736,
    "lat": 45.1874533,
    "lon": 5.7377751,
    "name": "Grenoble - H\u00f4tel de Ville",
    "road": "Boulevard Jean Pain"
  },
  "1794046737": {
    "accessible": 1,
    "city": "Grenoble",
    "id": 1794046737,
    "lat": 45.1874788,
    "lon": 5.7377545,
    "name": "Grenoble - H\u00f4tel de Ville",
    "road": "Boulevard Jean Pain"
  },
  "1799124314": {
    "accessible": 0,
    "city": "Varces-Alli\u00e8res-et-Risset",
    "id": 1799124314,
    "lat": 45.0861279,
    "lon": 5.6824663,
    "name": "Varces - R\u00e9publique",
    "road": ""
  },
  "1799285832": {
    "accessible": 1,
    "city": "Grenoble",
    "id": 1799285832,
    "lat": 45.1949714,
    "lon": 5.7291819,
    "name": "Place Cymaise",
    "road": "Quai Mounier"
  },
  "1799285834": {
    "accessible": 0,
    "city": "Grenoble",
    "id": 1799285834,
    "lat": 45.1949831,
    "lon": 5.726137,
    "name": "Mus\u00e9e Dauphinois",
    "road": "Rue Maurice Gignoux"
  },
  "1799525871": {
    "accessible": 0,
    "city": "Meylan",
    "id": 1799525871,
    "lat": 45.2184617,
    "lon": 5.7791246,
    "name": "Hauts de Meylan",
    "road": "Chemin de l'\u00c9glise"
  },
  "1799525872": {
    "accessible": 0,
    "city": "Meylan",
    "id": 1799525872,
    "lat": 45.2104189,
    "lon": 5.767176,
    "name": "Lionel Terray",
    "road": "Chemin de la Revir\u00e9e"
  },
  "1799525877": {
    "accessible": 0,
    "city": "Meylan",
    "id": 1799525877,
    "lat": 45.2074425,
    "lon": 5.7591248,
    "name": "Champ Rochas",
    "road": "Rue Champ Rochas"
  },
  "1799525908": {
    "accessible": 0,
    "city": "Meylan",
    "id": 1799525908,
    "lat": 45.2121765,
    "lon": 5.7672871,
    "name": "Revir\u00e9e - Sayettes",
    "road": "Avenue de Chamrousse"
  },
  "1799525912": {
    "accessible": 0,
    "city": "Meylan",
    "id": 1799525912,
    "lat": 45.2182275,
    "lon": 5.7791866,
    "name": "Hauts de Meylan",
    "road": "Chemin de l'\u00c9glise"
  },
  "1799525916": {
    "accessible": 0,
    "city": "Meylan",
    "id": 1799525916,
    "lat": 45.2096932,
    "lon": 5.7662171,
    "name": "Lionel Terray",
    "road": "Rue des Peupliers"
  },
  "1799530468": {
    "accessible": 0,
    "city": "Meylan",
    "id": 1799530468,
    "lat": 45.2201818,
    "lon": 5.7798029,
    "name": "Champlars",
    "road": "Chemin de l'\u00c9glise"
  },
  "1799557059": {
    "accessible": 0,
    "city": "Meylan",
    "id": 1799557059,
    "lat": 45.2286752,
    "lon": 5.7846558,
    "name": "Gu\u00e9 du Boutet",
    "road": "Chemin du Boutet"
  },
  "1799557062": {
    "accessible": 0,
    "city": "Meylan",
    "id": 1799557062,
    "lat": 45.2285974,
    "lon": 5.789245,
    "name": "Saint-Victor",
    "road": "Chemin du Boutet"
  },
  "1799557066": {
    "accessible": 0,
    "city": "Meylan",
    "id": 1799557066,
    "lat": 45.2263008,
    "lon": 5.791163,
    "name": "La Treille",
    "road": "Chemin de la Chicane"
  },
  "1799557070": {
    "accessible": 0,
    "city": "Meylan",
    "id": 1799557070,
    "lat": 45.2299724,
    "lon": 5.7897711,
    "name": "Montlivet",
    "road": "Chemin du Boutet"
  },
  "1799557075": {
    "accessible": 0,
    "city": "Meylan",
    "id": 1799557075,
    "lat": 45.230033,
    "lon": 5.7873502,
    "name": "Pr\u00e9 Catlan",
    "road": "Chemin du Boutet"
  },
  "1799557079": {
    "accessible": 0,
    "city": "Meylan",
    "id": 1799557079,
    "lat": 45.2256692,
    "lon": 5.7845839,
    "name": "Croix de Cibeins",
    "road": "Chemin de l'\u00c9glise"
  },
  "1799557085": {
    "accessible": 0,
    "city": "Meylan",
    "id": 1799557085,
    "lat": 45.2237524,
    "lon": 5.7818006,
    "name": "Croix des Rameaux",
    "road": "Chemin de l'\u00c9glise"
  },
  "1800435876": {
    "accessible": 1,
    "city": "Fontaine",
    "id": 1800435876,
    "lat": 45.1972355,
    "lon": 5.6720043,
    "name": "La Poya",
    "road": ""
  },
  "1800589780": {
    "accessible": 0,
    "city": "Corenc",
    "id": 1800589780,
    "lat": 45.2237902,
    "lon": 5.7678709,
    "name": "Rochasson",
    "road": "Route de la Chartreuse"
  },
  "1800589791": {
    "accessible": 0,
    "city": "Corenc",
    "id": 1800589791,
    "lat": 45.2211251,
    "lon": 5.764654,
    "name": "Providence",
    "road": "Route de la Chartreuse"
  },
  "1800589793": {
    "accessible": 0,
    "city": "Corenc",
    "id": 1800589793,
    "lat": 45.2078313,
    "lon": 5.755469,
    "name": "Le C\u00e8dre",
    "road": "Avenue du C\u00e8dre"
  },
  "1800589796": {
    "accessible": 0,
    "city": "Corenc",
    "id": 1800589796,
    "lat": 45.2142512,
    "lon": 5.7531884,
    "name": "Charles Pajon",
    "road": "Chemin Charles Pajon"
  },
  "1800589800": {
    "accessible": 0,
    "city": "Corenc",
    "id": 1800589800,
    "lat": 45.2097617,
    "lon": 5.7526251,
    "name": "Corenc - Mairie",
    "road": "Avenue du C\u00e8dre"
  },
  "1800589805": {
    "accessible": 0,
    "city": "Corenc",
    "id": 1800589805,
    "lat": 45.2273409,
    "lon": 5.7659094,
    "name": "La Garenne",
    "road": "Route de la Chartreuse"
  },
  "1800589809": {
    "accessible": 0,
    "city": "Corenc",
    "id": 1800589809,
    "lat": 45.2111077,
    "lon": 5.7509137,
    "name": "Mairie Condamine",
    "road": "Avenue de la Condamine"
  },
  "1800589820": {
    "accessible": 0,
    "city": "Corenc",
    "id": 1800589820,
    "lat": 45.2197844,
    "lon": 5.7623056,
    "name": "Corenc Village",
    "road": "Route de la Chartreuse"
  },
  "1800589827": {
    "accessible": 0,
    "city": "Corenc",
    "id": 1800589827,
    "lat": 45.2199485,
    "lon": 5.7627522,
    "name": "Corenc Village",
    "road": "Route de la Chartreuse"
  },
  "1800589834": {
    "accessible": 0,
    "city": "Corenc",
    "id": 1800589834,
    "lat": 45.2236541,
    "lon": 5.7678437,
    "name": "Rochasson",
    "road": "Route de la Chartreuse"
  },
  "1800608905": {
    "accessible": 0,
    "city": "Varces-Alli\u00e8res-et-Risset",
    "id": 1800608905,
    "lat": 45.0949942,
    "lon": 5.6798368,
    "name": "La Giraudi\u00e8re",
    "road": "Rue de la Marjoera"
  },
  "1800608913": {
    "accessible": 0,
    "city": "Varces-Alli\u00e8res-et-Risset",
    "id": 1800608913,
    "lat": 45.0876512,
    "lon": 5.6721373,
    "name": "La Pommeraie",
    "road": ""
  },
  "1800608920": {
    "accessible": 0,
    "city": "Varces-Alli\u00e8res-et-Risset",
    "id": 1800608920,
    "lat": 45.0951848,
    "lon": 5.6742928,
    "name": "Cit\u00e9 Scolaire",
    "road": "Rue du Champ Nigat"
  },
  "1800608930": {
    "accessible": 0,
    "city": "Varces-Alli\u00e8res-et-Risset",
    "id": 1800608930,
    "lat": 45.0949599,
    "lon": 5.6744495,
    "name": "Cit\u00e9 Scolaire",
    "road": "Rue du Champ Nigat"
  },
  "1800608960": {
    "accessible": 0,
    "city": "Varces-Alli\u00e8res-et-Risset",
    "id": 1800608960,
    "lat": 45.0896025,
    "lon": 5.6755677,
    "name": "Les Platanes",
    "road": "Rue de Mazeti\u00e8re"
  },
  "1800639901": {
    "accessible": 0,
    "city": "Saint-Paul-de-Varces",
    "id": 1800639901,
    "lat": 45.0796397,
    "lon": 5.6629498,
    "name": "Le Meinget",
    "road": "Route du Vercors"
  },
  "1800639909": {
    "accessible": 0,
    "city": "Saint-Paul-de-Varces",
    "id": 1800639909,
    "lat": 45.0705291,
    "lon": 5.6449284,
    "name": "La Croix",
    "road": "Route du Vercors"
  },
  "1800653206": {
    "accessible": 1,
    "city": "Saint-\u00c9gr\u00e8ve",
    "id": 1800653206,
    "lat": 45.235336,
    "lon": 5.6715645,
    "name": "Saint-\u00c9gr\u00e8ve - Gare",
    "road": "Rue des Bonnais"
  },
  "1800653228": {
    "accessible": 1,
    "city": "Saint-\u00c9gr\u00e8ve",
    "id": 1800653228,
    "lat": 45.2357925,
    "lon": 5.6715307,
    "name": "Saint-\u00c9gr\u00e8ve - Gare",
    "road": "Rue des Bonnais"
  },
  "1800903104": {
    "accessible": 0,
    "city": "Grenoble",
    "id": 1800903104,
    "lat": 45.1884318,
    "lon": 5.7231146,
    "name": "Gambetta",
    "road": "Boulevard Gambetta"
  },
  "1800967291": {
    "accessible": 1,
    "city": "Seyssins",
    "id": 1800967291,
    "lat": 45.158619,
    "lon": 5.6745016,
    "name": "Le Parlement",
    "road": "D 106"
  },
  "1800967292": {
    "accessible": 0,
    "city": "Seyssins",
    "id": 1800967292,
    "lat": 45.1556707,
    "lon": 5.6715154,
    "name": "Les C\u00f4tes",
    "road": "D 106"
  },
  "1800967294": {
    "accessible": 0,
    "city": "Seyssins",
    "id": 1800967294,
    "lat": 45.1560284,
    "lon": 5.6712566,
    "name": "Les C\u00f4tes",
    "road": "D 106"
  },
  "1800967299": {
    "accessible": 0,
    "city": "Seyssins",
    "id": 1800967299,
    "lat": 45.1569846,
    "lon": 5.6787677,
    "name": "Le Priou",
    "road": "D 106"
  },
  "1801979636": {
    "accessible": 0,
    "city": "Saint-Paul-de-Varces",
    "id": 1801979636,
    "lat": 45.0744195,
    "lon": 5.6600894,
    "name": "Le Poulat",
    "road": "Route du Vercors"
  },
  "1801979638": {
    "accessible": 0,
    "city": "Saint-Paul-de-Varces",
    "id": 1801979638,
    "lat": 45.071642,
    "lon": 5.6426233,
    "name": "Saint-Paul-de-Varces - Place",
    "road": "Chemin Saint-Ange"
  },
  "1801979643": {
    "accessible": 0,
    "city": "Saint-Paul-de-Varces",
    "id": 1801979643,
    "lat": 45.0717711,
    "lon": 5.6549657,
    "name": "La Bascule",
    "road": "Route du Vercors"
  },
  "1801979645": {
    "accessible": 0,
    "city": "Saint-Paul-de-Varces",
    "id": 1801979645,
    "lat": 45.0792294,
    "lon": 5.6627927,
    "name": "Le Meinget",
    "road": "Route du Vercors"
  },
  "1802058433": {
    "accessible": 0,
    "city": "Varces-Alli\u00e8res-et-Risset",
    "id": 1802058433,
    "lat": 45.1108089,
    "lon": 5.6786257,
    "name": "Les Bauches",
    "road": "Rue de la Pissarde"
  },
  "1802058436": {
    "accessible": 0,
    "city": "Claix",
    "id": 1802058436,
    "lat": 45.1159954,
    "lon": 5.6889397,
    "name": "Charri\u00e8res",
    "road": "Rue Lesdigui\u00e8res"
  },
  "1802058437": {
    "accessible": 0,
    "city": "Varces-Alli\u00e8res-et-Risset",
    "id": 1802058437,
    "lat": 45.1083892,
    "lon": 5.6742719,
    "name": "Pavillon",
    "road": "Rue de la Pissarde"
  },
  "1802058440": {
    "accessible": 0,
    "city": "Claix",
    "id": 1802058440,
    "lat": 45.1122126,
    "lon": 5.6846955,
    "name": "Saint-Michel",
    "road": "Rue Lesdigui\u00e8res"
  },
  "1802058441": {
    "accessible": 0,
    "city": "Claix",
    "id": 1802058441,
    "lat": 45.1120236,
    "lon": 5.6845686,
    "name": "Saint-Michel",
    "road": "Rue Lesdigui\u00e8res"
  },
  "1802058442": {
    "accessible": 0,
    "city": "Varces-Alli\u00e8res-et-Risset",
    "id": 1802058442,
    "lat": 45.1105249,
    "lon": 5.678029,
    "name": "Les Bauches",
    "road": "Rue de la Pissarde"
  },
  "1802088381": {
    "accessible": 0,
    "city": "Claix",
    "id": 1802088381,
    "lat": 45.1170133,
    "lon": 5.6734377,
    "name": "Grands Champs",
    "road": "Rue du 11 Novembre"
  },
  "1802088384": {
    "accessible": 0,
    "city": "Claix",
    "id": 1802088384,
    "lat": 45.1118273,
    "lon": 5.6719019,
    "name": "La B\u00e2tie",
    "road": "Rue du 11 Novembre"
  },
  "1802088385": {
    "accessible": 0,
    "city": "Claix",
    "id": 1802088385,
    "lat": 45.1196087,
    "lon": 5.6690147,
    "name": "Boulodrome \u00c9cole",
    "road": ""
  },
  "1802088386": {
    "accessible": 0,
    "city": "Claix",
    "id": 1802088386,
    "lat": 45.1141924,
    "lon": 5.6726472,
    "name": "La Ch\u00eanaie",
    "road": "Rue du 11 Novembre"
  },
  "1802088387": {
    "accessible": 0,
    "city": "Claix",
    "id": 1802088387,
    "lat": 45.1181625,
    "lon": 5.6729622,
    "name": "Les \u00c9glantiers",
    "road": "Rue du 11 Novembre"
  },
  "1802088388": {
    "accessible": 0,
    "city": "Varces-Alli\u00e8res-et-Risset",
    "id": 1802088388,
    "lat": 45.1072546,
    "lon": 5.6731505,
    "name": "Risset",
    "road": "Rue de la Pissarde"
  },
  "1802088390": {
    "accessible": 0,
    "city": "Claix",
    "id": 1802088390,
    "lat": 45.1197447,
    "lon": 5.6725884,
    "name": "Claix - Mairie",
    "road": "Rue Pasteur"
  },
  "1802088391": {
    "accessible": 0,
    "city": "Claix",
    "id": 1802088391,
    "lat": 45.1196205,
    "lon": 5.6693199,
    "name": "Boulodrome \u00c9cole",
    "road": "Rue Fantin Latour"
  },
  "1802090359": {
    "accessible": 0,
    "city": "Claix",
    "id": 1802090359,
    "lat": 45.1152414,
    "lon": 5.6659892,
    "name": "Les Pampres",
    "road": "Rue Fantin Latour"
  },
  "1802109397": {
    "accessible": 0,
    "city": "Claix",
    "id": 1802109397,
    "lat": 45.1069064,
    "lon": 5.6652715,
    "name": "Val d'Alli\u00e8res",
    "road": ""
  },
  "1802109398": {
    "accessible": 0,
    "city": "Claix",
    "id": 1802109398,
    "lat": 45.1131678,
    "lon": 5.6658345,
    "name": "Les Taillis",
    "road": "Rue du Ch\u00e2teau"
  },
  "1802109399": {
    "accessible": 0,
    "city": "Claix",
    "id": 1802109399,
    "lat": 45.1117678,
    "lon": 5.6655334,
    "name": "Bellevue",
    "road": "Rue du Ch\u00e2teau"
  },
  "1802109400": {
    "accessible": 0,
    "city": "Claix",
    "id": 1802109400,
    "lat": 45.1153658,
    "lon": 5.6659104,
    "name": "Les Pampres",
    "road": "Rue Fantin Latour"
  },
  "1802109401": {
    "accessible": 0,
    "city": "Seyssins",
    "id": 1802109401,
    "lat": 45.1614375,
    "lon": 5.6734618,
    "name": "Le Cellier",
    "road": ""
  },
  "1802977950": {
    "accessible": 0,
    "city": "Sassenage",
    "id": 1802977950,
    "lat": 45.2136028,
    "lon": 5.6524627,
    "name": "Mollard Pichon",
    "road": "Rue Pierre Dalloz"
  },
  "1802977960": {
    "accessible": 0,
    "city": "Sassenage",
    "id": 1802977960,
    "lat": 45.211388,
    "lon": 5.6497282,
    "name": "Vieux Donjon",
    "road": "Rue Pierre Dalloz"
  },
  "1802977971": {
    "accessible": 0,
    "city": "Sassenage",
    "id": 1802977971,
    "lat": 45.2135346,
    "lon": 5.6524112,
    "name": "Mollard Pichon",
    "road": "Rue Pierre Dalloz"
  },
  "1802977974": {
    "accessible": 0,
    "city": "Sassenage",
    "id": 1802977974,
    "lat": 45.2149593,
    "lon": 5.6516739,
    "name": "Rivoire de la Dame",
    "road": "Rue des Parcs"
  },
  "1802977980": {
    "accessible": 0,
    "city": "Sassenage",
    "id": 1802977980,
    "lat": 45.21656,
    "lon": 5.6519885,
    "name": "Les Parcs",
    "road": "Rue des Parcs"
  },
  "1802977986": {
    "accessible": 0,
    "city": "Sassenage",
    "id": 1802977986,
    "lat": 45.2101018,
    "lon": 5.6485855,
    "name": "Beaurevoir",
    "road": "Rue Pierre Dalloz"
  },
  "1803020384": {
    "accessible": 0,
    "city": "Claix",
    "id": 1803020384,
    "lat": 45.1352231,
    "lon": 5.6683998,
    "name": "Chemin de l'Abb\u00e9",
    "road": "Chemin de l'Abb\u00e9"
  },
  "1803020388": {
    "accessible": 0,
    "city": "Claix",
    "id": 1803020388,
    "lat": 45.1265051,
    "lon": 5.6871777,
    "name": "Le Coteau",
    "road": "Rue du Coteau"
  },
  "1803020401": {
    "accessible": 0,
    "city": "Claix",
    "id": 1803020401,
    "lat": 45.1220768,
    "lon": 5.6892403,
    "name": "Fond Ratel",
    "road": ""
  },
  "1803020404": {
    "accessible": 0,
    "city": "Claix",
    "id": 1803020404,
    "lat": 45.1252325,
    "lon": 5.6880811,
    "name": "La Balmette",
    "road": "Rue du Coteau"
  },
  "1803020413": {
    "accessible": 0,
    "city": "Claix",
    "id": 1803020413,
    "lat": 45.1388414,
    "lon": 5.6701527,
    "name": "Cossey",
    "road": ""
  },
  "1803020416": {
    "accessible": 0,
    "city": "Claix",
    "id": 1803020416,
    "lat": 45.1305305,
    "lon": 5.6836375,
    "name": "Les Cimentiers",
    "road": "Rue de la Balme"
  },
  "1803020421": {
    "accessible": 0,
    "city": "Claix",
    "id": 1803020421,
    "lat": 45.132236,
    "lon": 5.6667895,
    "name": "Malhivert",
    "road": "Chemin de l'Abb\u00e9"
  },
  "1803020425": {
    "accessible": 0,
    "city": "Claix",
    "id": 1803020425,
    "lat": 45.130676,
    "lon": 5.6836935,
    "name": "Les Cimentiers",
    "road": "Rue de la Balme"
  },
  "1803020428": {
    "accessible": 0,
    "city": "Claix",
    "id": 1803020428,
    "lat": 45.1245813,
    "lon": 5.6795285,
    "name": "Les P\u00e9rouses",
    "road": "Rue de la Balme"
  },
  "1803020431": {
    "accessible": 0,
    "city": "Claix",
    "id": 1803020431,
    "lat": 45.1320366,
    "lon": 5.666659,
    "name": "Malhivert",
    "road": "Chemin de l'Abb\u00e9"
  },
  "1803020454": {
    "accessible": 0,
    "city": "Claix",
    "id": 1803020454,
    "lat": 45.1225834,
    "lon": 5.691111,
    "name": "M\u00e9morial",
    "road": "Rue du Drac"
  },
  "1803020461": {
    "accessible": 0,
    "city": "Claix",
    "id": 1803020461,
    "lat": 45.1226623,
    "lon": 5.6909422,
    "name": "M\u00e9morial",
    "road": "Rue du Drac"
  },
  "1803020469": {
    "accessible": 0,
    "city": "Claix",
    "id": 1803020469,
    "lat": 45.1205118,
    "lon": 5.6733423,
    "name": "Claix - Mairie",
    "road": "Avenue Bougault"
  },
  "1803051773": {
    "accessible": 0,
    "city": "Gi\u00e8res",
    "id": 1803051773,
    "lat": 45.1819148,
    "lon": 5.7808099,
    "name": "Le Chamandier",
    "road": ""
  },
  "1803051775": {
    "accessible": 0,
    "city": "Venon",
    "id": 1803051775,
    "lat": 45.1724882,
    "lon": 5.810333,
    "name": "Le Perroud",
    "road": "D 164"
  },
  "1803051776": {
    "accessible": 0,
    "city": "Venon",
    "id": 1803051776,
    "lat": 45.1703269,
    "lon": 5.8107908,
    "name": "Sous-Perroud",
    "road": "D 164"
  },
  "1803051778": {
    "accessible": 0,
    "city": "Venon",
    "id": 1803051778,
    "lat": 45.1705438,
    "lon": 5.8074678,
    "name": "La Ch\u00eanaie",
    "road": "D 164"
  },
  "1803051780": {
    "accessible": 0,
    "city": "Gi\u00e8res",
    "id": 1803051780,
    "lat": 45.1812089,
    "lon": 5.7882539,
    "name": "Edelweiss",
    "road": "Avenue d'Uriage"
  },
  "1803051782": {
    "accessible": 0,
    "city": "Venon",
    "id": 1803051782,
    "lat": 45.1737718,
    "lon": 5.8027512,
    "name": "La Ville",
    "road": "Route de Venon"
  },
  "1803051785": {
    "accessible": 0,
    "city": "Venon",
    "id": 1803051785,
    "lat": 45.1728436,
    "lon": 5.7980472,
    "name": "La Serrali\u00e8re",
    "road": "Route de Venon"
  },
  "1803051786": {
    "accessible": 0,
    "city": "Venon",
    "id": 1803051786,
    "lat": 45.1754429,
    "lon": 5.7946872,
    "name": "La Faurie",
    "road": "Route de Venon"
  },
  "1803051788": {
    "accessible": 0,
    "city": "Venon",
    "id": 1803051788,
    "lat": 45.171787,
    "lon": 5.8046814,
    "name": "Venon Mairie",
    "road": "L'Achard"
  },
  "1804374990": {
    "accessible": 1,
    "city": "Fontanil-Cornillon",
    "id": 1804374990,
    "lat": 45.2585137,
    "lon": 5.6595433,
    "name": "Croix de la Rochette",
    "road": "Grande Rue"
  },
  "1804418008": {
    "accessible": 0,
    "city": "Grenoble",
    "id": 1804418008,
    "lat": 45.1807117,
    "lon": 5.7224924,
    "name": "Foch - F\u00e9rri\u00e9",
    "road": "Boulevard Mar\u00e9chal Foch"
  },
  "1805369356": {
    "accessible": 0,
    "city": "Sassenage",
    "id": 1805369356,
    "lat": 45.2196158,
    "lon": 5.6602854,
    "name": "Les Engeni\u00e8res",
    "road": "D 1532"
  },
  "1805395461": {
    "accessible": 0,
    "city": "Noyarey",
    "id": 1805395461,
    "lat": 45.2458722,
    "lon": 5.6295138,
    "name": "Rue du Maupas",
    "road": "Rue du Maupas"
  },
  "1805431133": {
    "accessible": 0,
    "city": "Varces-Alli\u00e8res-et-Risset",
    "id": 1805431133,
    "lat": 45.0899838,
    "lon": 5.6924591,
    "name": "Berliogni\u00e8re",
    "road": "Rue Honor\u00e9 de Balzac"
  },
  "1805431137": {
    "accessible": 0,
    "city": "Varces-Alli\u00e8res-et-Risset",
    "id": 1805431137,
    "lat": 45.0871109,
    "lon": 5.7025089,
    "name": "Rozati\u00e8re",
    "road": ""
  },
  "1805431141": {
    "accessible": 0,
    "city": "Vif",
    "id": 1805431141,
    "lat": 45.0752565,
    "lon": 5.7003041,
    "name": "Le Refuge",
    "road": "Route de Fontagneux"
  },
  "1805431145": {
    "accessible": 0,
    "city": "Vif",
    "id": 1805431145,
    "lat": 45.0706097,
    "lon": 5.6952148,
    "name": "Rue de la Sacristie",
    "road": "Route de Fontagneux"
  },
  "1805431148": {
    "accessible": 0,
    "city": "Vif",
    "id": 1805431148,
    "lat": 45.0838618,
    "lon": 5.7046162,
    "name": "Malissoles",
    "road": "Route de Fontagneux"
  },
  "1805431149": {
    "accessible": 0,
    "city": "Vif",
    "id": 1805431149,
    "lat": 45.0548176,
    "lon": 5.6776536,
    "name": "Rue de l'Esp\u00e8re",
    "road": "Rue de l'Esp\u00e8re"
  },
  "1805431150": {
    "accessible": 0,
    "city": "Vif",
    "id": 1805431150,
    "lat": 45.0543459,
    "lon": 5.6753466,
    "name": "Rue du Nord",
    "road": "Rue du Nord"
  },
  "1805431156": {
    "accessible": 0,
    "city": "Vif",
    "id": 1805431156,
    "lat": 45.0784942,
    "lon": 5.7021886,
    "name": "Le Gros Ch\u00eane",
    "road": "Route de Fontagneux"
  },
  "1805431159": {
    "accessible": 0,
    "city": "Vif",
    "id": 1805431159,
    "lat": 45.0605441,
    "lon": 5.6878014,
    "name": "Mas Garni",
    "road": "Rue du Stade"
  },
  "1805431162": {
    "accessible": 0,
    "city": "Varces-Alli\u00e8res-et-Risset",
    "id": 1805431162,
    "lat": 45.0873477,
    "lon": 5.6901363,
    "name": "Notre Dame de Lachal",
    "road": ""
  },
  "1805431165": {
    "accessible": 0,
    "city": "Vif",
    "id": 1805431165,
    "lat": 45.069109,
    "lon": 5.6933281,
    "name": "\u00c9cole Reymure",
    "road": "Route de Fontagneux"
  },
  "1805431169": {
    "accessible": 0,
    "city": "Vif",
    "id": 1805431169,
    "lat": 45.0644453,
    "lon": 5.6912834,
    "name": "Jacobins",
    "road": "Rue du Stade"
  },
  "1805431172": {
    "accessible": 0,
    "city": "Vif",
    "id": 1805431172,
    "lat": 45.0872334,
    "lon": 5.7077965,
    "name": "Frontagneux",
    "road": "Route de Fontagneux"
  },
  "1805431175": {
    "accessible": 0,
    "city": "Varces-Alli\u00e8res-et-Risset",
    "id": 1805431175,
    "lat": 45.087299,
    "lon": 5.6941953,
    "name": "Balzac",
    "road": "Rue Honor\u00e9 de Balzac"
  },
  "1805431178": {
    "accessible": 0,
    "city": "Vif",
    "id": 1805431178,
    "lat": 45.0666089,
    "lon": 5.6920105,
    "name": "La Plaine",
    "road": "Route de Fontagneux"
  },
  "1805431179": {
    "accessible": 0,
    "city": "Vif",
    "id": 1805431179,
    "lat": 45.0622895,
    "lon": 5.6901637,
    "name": "Le Petit Brion",
    "road": "Rue du Stade"
  },
  "1805431180": {
    "accessible": 0,
    "city": "Vif",
    "id": 1805431180,
    "lat": 45.0578914,
    "lon": 5.6847823,
    "name": "All\u00e9e des Granges",
    "road": ""
  },
  "1805431185": {
    "accessible": 0,
    "city": "Vif",
    "id": 1805431185,
    "lat": 45.0569117,
    "lon": 5.681802,
    "name": "Z.A. des Speyres",
    "road": "Avenue d'Argenson"
  },
  "1805442744": {
    "accessible": 0,
    "city": "Le Gua",
    "id": 1805442744,
    "lat": 45.0169343,
    "lon": 5.6132989,
    "name": "Pr\u00e9lenfrey \u00e9glise",
    "road": "Place des Justes"
  },
  "1805442745": {
    "accessible": 0,
    "city": "Le Gua",
    "id": 1805442745,
    "lat": 45.0164999,
    "lon": 5.6407361,
    "name": "Les Rossets",
    "road": "Avenue du Vercors"
  },
  "1805442746": {
    "accessible": 0,
    "city": "Le Gua",
    "id": 1805442746,
    "lat": 44.999927,
    "lon": 5.6295565,
    "name": "Saint-Barth\u00e9l\u00e9my",
    "road": "Place de l'\u00c9glise"
  },
  "1805442748": {
    "accessible": 0,
    "city": "Le Gua",
    "id": 1805442748,
    "lat": 45.014504,
    "lon": 5.6137182,
    "name": "Les Faures",
    "road": "Chemin du Four Sarrat"
  },
  "1805442757": {
    "accessible": 0,
    "city": "Le Gua",
    "id": 1805442757,
    "lat": 45.0220991,
    "lon": 5.6444952,
    "name": "Le Gua Mairie",
    "road": "Avenue du Vercors"
  },
  "1807058172": {
    "accessible": 0,
    "city": "Gi\u00e8res",
    "id": 1807058172,
    "lat": 45.1893097,
    "lon": 5.7781376,
    "name": "Vignate",
    "road": "Avenue de Vignate"
  },
  "1807058177": {
    "accessible": 0,
    "city": "Gi\u00e8res",
    "id": 1807058177,
    "lat": 45.1893063,
    "lon": 5.7780799,
    "name": "Vignate",
    "road": "Avenue de Vignate"
  },
  "1812344638": {
    "accessible": 1,
    "city": "Grenoble",
    "id": 1812344638,
    "lat": 45.1849165,
    "lon": 5.7432918,
    "name": "Madeleine",
    "road": "Avenue Jeanne d'Arc"
  },
  "1812413020": {
    "accessible": 1,
    "city": "Grenoble",
    "id": 1812413020,
    "lat": 45.1865039,
    "lon": 5.7443692,
    "name": "Flandrin - Valmy",
    "road": "Avenue de Valmy"
  },
  "1812433028": {
    "accessible": 1,
    "city": "Gi\u00e8res",
    "id": 1812433028,
    "lat": 45.1741599,
    "lon": 5.7899755,
    "name": "La Combe",
    "road": "Avenue de la Combe"
  },
  "1812433042": {
    "accessible": 0,
    "city": "Gi\u00e8res",
    "id": 1812433042,
    "lat": 45.1727854,
    "lon": 5.7899031,
    "name": "La Combe",
    "road": "Avenue de la Combe"
  },
  "1812433053": {
    "accessible": 0,
    "city": "Saint-Martin-d'Uriage",
    "id": 1812433053,
    "lat": 45.1631748,
    "lon": 5.8122424,
    "name": "Le Chenil",
    "road": "D 524"
  },
  "1812433058": {
    "accessible": 0,
    "city": "Gi\u00e8res",
    "id": 1812433058,
    "lat": 45.1691389,
    "lon": 5.792877,
    "name": "Les Terrats",
    "road": "Avenue de la Combe"
  },
  "1812433061": {
    "accessible": 0,
    "city": "Gi\u00e8res",
    "id": 1812433061,
    "lat": 45.1687928,
    "lon": 5.7936792,
    "name": "Les Terrats",
    "road": "Avenue de la Combe"
  },
  "1812433062": {
    "accessible": 0,
    "city": "Saint-Martin-d'Uriage",
    "id": 1812433062,
    "lat": 45.1630204,
    "lon": 5.8130492,
    "name": "Le Chenil",
    "road": "D 524"
  },
  "1812472978": {
    "accessible": 0,
    "city": "Vaulnaveys-le-Haut",
    "id": 1812472978,
    "lat": 45.1363557,
    "lon": 5.8247205,
    "name": "La Tuilerie",
    "road": ""
  },
  "1812472985": {
    "accessible": 0,
    "city": "Vaulnaveys-le-Haut",
    "id": 1812472985,
    "lat": 45.1257056,
    "lon": 5.8169193,
    "name": "Les Guichards",
    "road": "Avenue d'Uriage"
  },
  "1812472987": {
    "accessible": 0,
    "city": "Vaulnaveys-le-Haut",
    "id": 1812472987,
    "lat": 45.1361173,
    "lon": 5.8242179,
    "name": "La Tuilerie",
    "road": "D 524"
  },
  "1812509691": {
    "accessible": 0,
    "city": "Vaulnaveys-le-Haut",
    "id": 1812509691,
    "lat": 45.1213844,
    "lon": 5.8141267,
    "name": "\u00c9cole Jules Bruant",
    "road": "Avenue d'Uriage"
  },
  "1812509752": {
    "accessible": 0,
    "city": "Vizille",
    "id": 1812509752,
    "lat": 45.0879362,
    "lon": 5.7895992,
    "name": "Le Pont du Mas",
    "road": "Route d'Uriage"
  },
  "1812509755": {
    "accessible": 0,
    "city": "Vaulnaveys-le-Bas",
    "id": 1812509755,
    "lat": 45.0939852,
    "lon": 5.7933186,
    "name": "Le Pl\u00e2tre",
    "road": "Avenue des Vaulnaveys"
  },
  "1812509776": {
    "accessible": 0,
    "city": "Vaulnaveys-le-Bas",
    "id": 1812509776,
    "lat": 45.0912453,
    "lon": 5.7916277,
    "name": "Les Travers",
    "road": "Avenue des Vaulnaveys"
  },
  "1812509783": {
    "accessible": 0,
    "city": "Vaulnaveys-le-Bas",
    "id": 1812509783,
    "lat": 45.0910489,
    "lon": 5.7915148,
    "name": "Les Travers",
    "road": "Avenue des Vaulnaveys"
  },
  "1812509791": {
    "accessible": 0,
    "city": "Vaulnaveys-le-Haut",
    "id": 1812509791,
    "lat": 45.1151498,
    "lon": 5.8080152,
    "name": "Marchandises",
    "road": "Avenue d'Uriage"
  },
  "1812509801": {
    "accessible": 0,
    "city": "Vaulnaveys-le-Haut",
    "id": 1812509801,
    "lat": 45.1217404,
    "lon": 5.8144411,
    "name": "\u00c9cole Jules Bruant",
    "road": ""
  },
  "1812509838": {
    "accessible": 0,
    "city": "Vaulnaveys-le-Haut",
    "id": 1812509838,
    "lat": 45.1193256,
    "lon": 5.8110387,
    "name": "Vaulnaveys Le Haut - Le Village",
    "road": "Avenue d'Uriage"
  },
  "1812509842": {
    "accessible": 0,
    "city": "Vaulnaveys-le-Bas",
    "id": 1812509842,
    "lat": 45.105334,
    "lon": 5.8003585,
    "name": "Vaulnaveys Le Bas - Le Village",
    "road": "Avenue des Vaulnaveys"
  },
  "1812509846": {
    "accessible": 0,
    "city": "Vaulnaveys-le-Bas",
    "id": 1812509846,
    "lat": 45.1054999,
    "lon": 5.8004655,
    "name": "Vaulnaveys Le Bas - Le Village",
    "road": "Avenue des Vaulnaveys"
  },
  "1812509847": {
    "accessible": 0,
    "city": "Vaulnaveys-le-Bas",
    "id": 1812509847,
    "lat": 45.1118063,
    "lon": 5.805047,
    "name": "Maison Blanche",
    "road": "Avenue des Vaulnaveys"
  },
  "1812538551": {
    "accessible": 0,
    "city": "Vizille",
    "id": 1812538551,
    "lat": 45.0758875,
    "lon": 5.7744451,
    "name": "Tunnel Ch\u00e2teau",
    "road": "Route d'Uriage"
  },
  "1812538558": {
    "accessible": 0,
    "city": "Vizille",
    "id": 1812538558,
    "lat": 45.0754692,
    "lon": 5.7783937,
    "name": "Les Allas",
    "road": "Route d'Uriage"
  },
  "1812538561": {
    "accessible": 0,
    "city": "Vizille",
    "id": 1812538561,
    "lat": 45.075445,
    "lon": 5.7786629,
    "name": "Les Allas",
    "road": "Route d'Uriage"
  },
  "1812538565": {
    "accessible": 0,
    "city": "Vizille",
    "id": 1812538565,
    "lat": 45.0817779,
    "lon": 5.7876204,
    "name": "Les Corniers",
    "road": "Route d'Uriage"
  },
  "1812538592": {
    "accessible": 0,
    "city": "Vizille",
    "id": 1812538592,
    "lat": 45.0814085,
    "lon": 5.7874559,
    "name": "Les Corniers",
    "road": "Route d'Uriage"
  },
  "1821357929": {
    "accessible": 0,
    "city": "Bri\u00e9-et-Angonnes",
    "id": 1821357929,
    "lat": 45.1361436,
    "lon": 5.7704872,
    "name": "Tavernolles",
    "road": "Avenue du Maquis de l'Oisans"
  },
  "1821357930": {
    "accessible": 0,
    "city": "Bri\u00e9-et-Angonnes",
    "id": 1821357930,
    "lat": 45.1362347,
    "lon": 5.770347,
    "name": "Tavernolles",
    "road": "Avenue du Maquis de l'Oisans"
  },
  "1821374966": {
    "accessible": 0,
    "city": "Bri\u00e9-et-Angonnes",
    "id": 1821374966,
    "lat": 45.1112168,
    "lon": 5.786424,
    "name": "Bri\u00e9-et-Angonnes - \u00c9glise",
    "road": "Route Napol\u00e9on"
  },
  "1821418422": {
    "accessible": 0,
    "city": "Bri\u00e9-et-Angonnes",
    "id": 1821418422,
    "lat": 45.1305795,
    "lon": 5.7782298,
    "name": "Souveyron",
    "road": "Route du Souveyron"
  },
  "1821418430": {
    "accessible": 0,
    "city": "Bri\u00e9-et-Angonnes",
    "id": 1821418430,
    "lat": 45.1279382,
    "lon": 5.7850999,
    "name": "Le Coin",
    "road": "Route du Souveyron"
  },
  "1826143642": {
    "accessible": 0,
    "city": "Jarrie",
    "id": 1826143642,
    "lat": 45.1156799,
    "lon": 5.7510134,
    "name": "Les Tevenets",
    "road": "Route du Mollard"
  },
  "1826463198": {
    "accessible": 0,
    "city": "Bresson",
    "id": 1826463198,
    "lat": 45.1408398,
    "lon": 5.7499847,
    "name": "Lagay",
    "road": "Avenue de Bresson"
  },
  "1826463208": {
    "accessible": 1,
    "city": "Bresson",
    "id": 1826463208,
    "lat": 45.1410949,
    "lon": 5.7413632,
    "name": "La Maritelle",
    "road": "Rue de la R\u00e9publique"
  },
  "1826463223": {
    "accessible": 0,
    "city": "Bresson",
    "id": 1826463223,
    "lat": 45.1415649,
    "lon": 5.7413327,
    "name": "La Maritelle",
    "road": "Rue de la R\u00e9publique"
  },
  "1826463227": {
    "accessible": 0,
    "city": "Bresson",
    "id": 1826463227,
    "lat": 45.1376742,
    "lon": 5.7477224,
    "name": "Bresson - Mairie",
    "road": "Rue de la R\u00e9publique"
  },
  "1826463230": {
    "accessible": 0,
    "city": "Bresson",
    "id": 1826463230,
    "lat": 45.1377723,
    "lon": 5.7481294,
    "name": "Bresson - Mairie",
    "road": "Rue de la R\u00e9publique"
  },
  "1826463232": {
    "accessible": 0,
    "city": "Bresson",
    "id": 1826463232,
    "lat": 45.1380857,
    "lon": 5.7456905,
    "name": "Les Vignes",
    "road": "Rue de la R\u00e9publique"
  },
  "1827777176": {
    "accessible": 0,
    "city": "Eybens",
    "id": 1827777176,
    "lat": 45.1486453,
    "lon": 5.7354098,
    "name": "Fran\u00e7ois Quesnay",
    "road": "D 269A"
  },
  "1827777177": {
    "accessible": 0,
    "city": "Eybens",
    "id": 1827777177,
    "lat": 45.1486002,
    "lon": 5.7352815,
    "name": "Fran\u00e7ois Quesnay",
    "road": "D 269A"
  },
  "1828989762": {
    "accessible": 1,
    "city": "Grenoble",
    "id": 1828989762,
    "lat": 45.1877812,
    "lon": 5.7268303,
    "name": "Docteur Martin",
    "road": "Boulevard Agutte Sembat"
  },
  "1828989766": {
    "accessible": 0,
    "city": "Grenoble",
    "id": 1828989766,
    "lat": 45.1869948,
    "lon": 5.727061,
    "name": "Docteur Martin",
    "road": "Rue Lesdigui\u00e8res"
  },
  "1828989842": {
    "accessible": 1,
    "city": "Grenoble",
    "id": 1828989842,
    "lat": 45.1868258,
    "lon": 5.7278806,
    "name": "Docteur Martin",
    "road": "Boulevard Agutte Sembat"
  },
  "1828989844": {
    "accessible": 0,
    "city": "Grenoble",
    "id": 1828989844,
    "lat": 45.1870725,
    "lon": 5.7272859,
    "name": "Docteur Martin",
    "road": "Rue Lesdigui\u00e8res"
  },
  "1828989865": {
    "accessible": 1,
    "city": "Grenoble",
    "id": 1828989865,
    "lat": 45.1872952,
    "lon": 5.7273647,
    "name": "Docteur Martin",
    "road": "Boulevard Agutte Sembat"
  },
  "1828989885": {
    "accessible": 0,
    "city": "Grenoble",
    "id": 1828989885,
    "lat": 45.1867535,
    "lon": 5.7279628,
    "name": "Docteur Martin",
    "road": "Boulevard Agutte Sembat"
  },
  "1829038566": {
    "accessible": 1,
    "city": "Grenoble",
    "id": 1829038566,
    "lat": 45.1898164,
    "lon": 5.7251056,
    "name": "Victor Hugo",
    "road": "Rue Moli\u00e8re"
  },
  "1829038578": {
    "accessible": 1,
    "city": "Grenoble",
    "id": 1829038578,
    "lat": 45.1898405,
    "lon": 5.7250858,
    "name": "Victor Hugo",
    "road": "Rue Moli\u00e8re"
  },
  "1829038636": {
    "accessible": 1,
    "city": "Grenoble",
    "id": 1829038636,
    "lat": 45.1894877,
    "lon": 5.7249516,
    "name": "Victor Hugo",
    "road": "Place Victor Hugo"
  },
  "1829590482": {
    "accessible": 1,
    "city": "Grenoble",
    "id": 1829590482,
    "lat": 45.1854626,
    "lon": 5.7312372,
    "name": "Chavant",
    "road": "Boulevard Mar\u00e9chal Lyautey"
  },
  "1829590508": {
    "accessible": 1,
    "city": "Grenoble",
    "id": 1829590508,
    "lat": 45.1849225,
    "lon": 5.7324034,
    "name": "Chavant",
    "road": "Place Paul Mistral"
  },
  "1829656104": {
    "accessible": 1,
    "city": "Grenoble",
    "id": 1829656104,
    "lat": 45.1883931,
    "lon": 5.7310136,
    "name": "Verdun-Pr\u00e9fecture",
    "road": "Rue Lesdigui\u00e8res"
  },
  "1829656128": {
    "accessible": 1,
    "city": "Grenoble",
    "id": 1829656128,
    "lat": 45.1883803,
    "lon": 5.7307934,
    "name": "Verdun-Pr\u00e9fecture",
    "road": "Rue Lesdigui\u00e8res"
  },
  "1829656135": {
    "accessible": 1,
    "city": "Grenoble",
    "id": 1829656135,
    "lat": 45.1882482,
    "lon": 5.7314841,
    "name": "Verdun-Pr\u00e9fecture",
    "road": ""
  },
  "1829671093": {
    "accessible": 1,
    "city": "Grenoble",
    "id": 1829671093,
    "lat": 45.1875175,
    "lon": 5.737366,
    "name": "Grenoble - H\u00f4tel de Ville",
    "road": "Boulevard Jean Pain"
  },
  "1829671141": {
    "accessible": 1,
    "city": "Grenoble",
    "id": 1829671141,
    "lat": 45.1874761,
    "lon": 5.7375459,
    "name": "Grenoble - H\u00f4tel de Ville",
    "road": "Boulevard Jean Pain"
  },
  "1829688368": {
    "accessible": 1,
    "city": "Grenoble",
    "id": 1829688368,
    "lat": 45.1869477,
    "lon": 5.7443847,
    "name": "Flandrin - Valmy",
    "road": "Avenue Jules Flandrin"
  },
  "1829688373": {
    "accessible": 1,
    "city": "Grenoble",
    "id": 1829688373,
    "lat": 45.187197,
    "lon": 5.7447658,
    "name": "Flandrin - Valmy",
    "road": "Avenue Jules Flandrin"
  },
  "1829688385": {
    "accessible": 1,
    "city": "Grenoble",
    "id": 1829688385,
    "lat": 45.1865483,
    "lon": 5.7443662,
    "name": "Flandrin - Valmy",
    "road": "Avenue de Valmy"
  },
  "1829874475": {
    "accessible": 1,
    "city": "Saint-Martin-d'H\u00e8res",
    "id": 1829874475,
    "lat": 45.1875939,
    "lon": 5.7525586,
    "name": "P\u00e9ri - Brossolette",
    "road": "Avenue Gabriel P\u00e9ri"
  },
  "1829874481": {
    "accessible": 1,
    "city": "Saint-Martin-d'H\u00e8res",
    "id": 1829874481,
    "lat": 45.1876901,
    "lon": 5.7513384,
    "name": "P\u00e9ri - Brossolette",
    "road": "Avenue Gabriel P\u00e9ri"
  },
  "1829896922": {
    "accessible": 1,
    "city": "Saint-Martin-d'H\u00e8res",
    "id": 1829896922,
    "lat": 45.1868639,
    "lon": 5.7562969,
    "name": "Neyrpic - Belledonne",
    "road": "Avenue Gabriel P\u00e9ri"
  },
  "1829896938": {
    "accessible": 1,
    "city": "Saint-Martin-d'H\u00e8res",
    "id": 1829896938,
    "lat": 45.185863,
    "lon": 5.7575531,
    "name": "Neyrpic - Belledonne",
    "road": "Rue Marceau Leyssieux"
  },
  "1829896952": {
    "accessible": 1,
    "city": "Saint-Martin-d'H\u00e8res",
    "id": 1829896952,
    "lat": 45.1866835,
    "lon": 5.7571519,
    "name": "Neyrpic - Belledonne",
    "road": "Avenue Gabriel P\u00e9ri"
  },
  "1829897037": {
    "accessible": 1,
    "city": "Saint-Martin-d'H\u00e8res",
    "id": 1829897037,
    "lat": 45.1859124,
    "lon": 5.7574463,
    "name": "Neyrpic - Belledonne",
    "road": "Rue Marceau Leyssieux"
  },
  "1829929967": {
    "accessible": 1,
    "city": "Saint-Martin-d'H\u00e8res",
    "id": 1829929967,
    "lat": 45.1922269,
    "lon": 5.7578436,
    "name": "Les Taill\u00e9es - Universit\u00e9s",
    "road": "Rue de la Houille Blanche"
  },
  "1831334491": {
    "accessible": 1,
    "city": "Saint-Martin-d'H\u00e8res",
    "id": 1831334491,
    "lat": 45.1922913,
    "lon": 5.7645958,
    "name": "Gabriel Faur\u00e9",
    "road": "Avenue Centrale"
  },
  "1831366705": {
    "accessible": 1,
    "city": "Gi\u00e8res",
    "id": 1831366705,
    "lat": 45.1916876,
    "lon": 5.7703742,
    "name": "Biblioth\u00e8ques Universitaires",
    "road": "Avenue Centrale"
  },
  "1862030714": {
    "accessible": 1,
    "city": "Gi\u00e8res",
    "id": 1862030714,
    "lat": 45.1854241,
    "lon": 5.7856129,
    "name": "Gi\u00e8res - Gare - Universit\u00e9s",
    "road": ""
  },
  "1862030764": {
    "accessible": 1,
    "city": "Gi\u00e8res",
    "id": 1862030764,
    "lat": 45.1848659,
    "lon": 5.7852083,
    "name": "Gare - Universit\u00e9s \"SNCF\"",
    "road": "Rue de la Gare"
  },
  "1862030774": {
    "accessible": 1,
    "city": "Gi\u00e8res",
    "id": 1862030774,
    "lat": 45.184948,
    "lon": 5.7855039,
    "name": "Gare - Universit\u00e9s \"SNCF\"",
    "road": "Rue de la Gare"
  },
  "1862030797": {
    "accessible": 1,
    "city": "Gi\u00e8res",
    "id": 1862030797,
    "lat": 45.1855803,
    "lon": 5.785683,
    "name": "Gare - Universit\u00e9s \"Tramway\"",
    "road": "Passage de la Gare"
  },
  "1865469685": {
    "accessible": 1,
    "city": "Gi\u00e8res",
    "id": 1865469685,
    "lat": 45.1876032,
    "lon": 5.7846214,
    "name": "Gi\u00e8res - Plaine des Sports",
    "road": "Mail des Sports"
  },
  "1865479739": {
    "accessible": 1,
    "city": "Saint-Martin-d'H\u00e8res",
    "id": 1865479739,
    "lat": 45.1721098,
    "lon": 5.7575752,
    "name": "\u00c9tienne Grappe",
    "road": "Rue Henri Wallon"
  },
  "1865479743": {
    "accessible": 1,
    "city": "Saint-Martin-d'H\u00e8res",
    "id": 1865479743,
    "lat": 45.1722252,
    "lon": 5.7577148,
    "name": "\u00c9tienne Grappe",
    "road": "Rue Henri Wallon"
  },
  "1865479751": {
    "accessible": 1,
    "city": "Saint-Martin-d'H\u00e8res",
    "id": 1865479751,
    "lat": 45.1720964,
    "lon": 5.7571198,
    "name": "\u00c9tienne Grappe",
    "road": "Avenue Poti\u00e9"
  },
  "1871592599": {
    "accessible": 0,
    "city": "Saint-Martin-d'H\u00e8res",
    "id": 1871592599,
    "lat": 45.1839828,
    "lon": 5.7537933,
    "name": "Maison Communale",
    "road": "Avenue Ambroise Croizat"
  },
  "1871592611": {
    "accessible": 1,
    "city": "Saint-Martin-d'H\u00e8res",
    "id": 1871592611,
    "lat": 45.1844794,
    "lon": 5.7543325,
    "name": "Maison Communale",
    "road": "Place du Conseil National de la R\u00e9sistance"
  },
  "1882849466": {
    "accessible": 1,
    "city": "Varces-Alli\u00e8res-et-Risset",
    "id": 1882849466,
    "lat": 45.089893,
    "lon": 5.6836203,
    "name": "L'Oriel",
    "road": "D 1075"
  },
  "1882849471": {
    "accessible": 1,
    "city": "Varces-Alli\u00e8res-et-Risset",
    "id": 1882849471,
    "lat": 45.0890483,
    "lon": 5.6835919,
    "name": "L'Oriel",
    "road": "D 1075"
  },
  "1884430527": {
    "accessible": 1,
    "city": "Varces-Alli\u00e8res-et-Risset",
    "id": 1884430527,
    "lat": 45.0930876,
    "lon": 5.6837364,
    "name": "Rond-Point de l'Europe",
    "road": "D 1075"
  },
  "1884430538": {
    "accessible": 1,
    "city": "Varces-Alli\u00e8res-et-Risset",
    "id": 1884430538,
    "lat": 45.0930597,
    "lon": 5.6836859,
    "name": "Rond-Point de l'Europe",
    "road": "D 1075"
  },
  "1884436701": {
    "accessible": 1,
    "city": "Varces-Alli\u00e8res-et-Risset",
    "id": 1884436701,
    "lat": 45.0975502,
    "lon": 5.6839321,
    "name": "Saint-Ange",
    "road": "D 1075"
  },
  "1884436707": {
    "accessible": 1,
    "city": "Varces-Alli\u00e8res-et-Risset",
    "id": 1884436707,
    "lat": 45.0968667,
    "lon": 5.6836824,
    "name": "Saint-Ange",
    "road": "D 1075"
  },
  "1884467730": {
    "accessible": 1,
    "city": "Varces-Alli\u00e8res-et-Risset",
    "id": 1884467730,
    "lat": 45.1022483,
    "lon": 5.6858224,
    "name": "Le Rochefort",
    "road": "D 1075"
  },
  "1884467732": {
    "accessible": 1,
    "city": "Varces-Alli\u00e8res-et-Risset",
    "id": 1884467732,
    "lat": 45.1016774,
    "lon": 5.6853704,
    "name": "Le Rochefort",
    "road": "D 1075"
  },
  "1885091428": {
    "accessible": 0,
    "city": "Varces-Alli\u00e8res-et-Risset",
    "id": 1885091428,
    "lat": 45.1089298,
    "lon": 5.6880977,
    "name": "Pr\u00e9 de l'Orme",
    "road": "D 1075"
  },
  "1885091432": {
    "accessible": 0,
    "city": "Varces-Alli\u00e8res-et-Risset",
    "id": 1885091432,
    "lat": 45.1103705,
    "lon": 5.6886381,
    "name": "Pr\u00e9 de l'Orme",
    "road": "D 1075"
  },
  "1887337023": {
    "accessible": 0,
    "city": "Claix",
    "id": 1887337023,
    "lat": 45.1148261,
    "lon": 5.6902752,
    "name": "Carri\u00e8re",
    "road": "Avenue de la Lib\u00e9ration"
  },
  "1887337026": {
    "accessible": 0,
    "city": "Claix",
    "id": 1887337026,
    "lat": 45.1147455,
    "lon": 5.6902444,
    "name": "Carri\u00e8re",
    "road": "Avenue de la Lib\u00e9ration"
  },
  "1887378558": {
    "accessible": 1,
    "city": "Claix",
    "id": 1887378558,
    "lat": 45.1185884,
    "lon": 5.6932469,
    "name": "Claix - Pont Rouge",
    "road": "Avenue de la Lib\u00e9ration"
  },
  "1887378594": {
    "accessible": 1,
    "city": "Claix",
    "id": 1887378594,
    "lat": 45.1186599,
    "lon": 5.6929413,
    "name": "Claix - Pont Rouge",
    "road": ""
  },
  "1891298715": {
    "accessible": 1,
    "city": "Le Pont-de-Claix",
    "id": 1891298715,
    "lat": 45.1255663,
    "lon": 5.6979515,
    "name": "Marcelline",
    "road": "Cours Saint-Andr\u00e9"
  },
  "1891298727": {
    "accessible": 1,
    "city": "Le Pont-de-Claix",
    "id": 1891298727,
    "lat": 45.1261008,
    "lon": 5.6982512,
    "name": "Marcelline",
    "road": "Cours Saint-Andr\u00e9"
  },
  "1892894238": {
    "accessible": 1,
    "city": "Le Pont-de-Claix",
    "id": 1892894238,
    "lat": 45.127429,
    "lon": 5.698568,
    "name": "Ir\u00e8ne Joliot-Curie",
    "road": "Cours Saint-Andr\u00e9"
  },
  "1892905292": {
    "accessible": 1,
    "city": "Le Pont-de-Claix",
    "id": 1892905292,
    "lat": 45.1279575,
    "lon": 5.6988772,
    "name": "Ir\u00e8ne Joliot-Curie",
    "road": "Cours Saint-Andr\u00e9"
  },
  "1892913025": {
    "accessible": 1,
    "city": "Le Pont-de-Claix",
    "id": 1892913025,
    "lat": 45.1297791,
    "lon": 5.6993715,
    "name": "Iles de Mars",
    "road": "Cours Saint-Andr\u00e9"
  },
  "1892913037": {
    "accessible": 1,
    "city": "Le Pont-de-Claix",
    "id": 1892913037,
    "lat": 45.1303042,
    "lon": 5.6996728,
    "name": "Iles de Mars",
    "road": "Cours Saint-Andr\u00e9"
  },
  "1893323969": {
    "accessible": 1,
    "city": "Le Pont-de-Claix",
    "id": 1893323969,
    "lat": 45.1316859,
    "lon": 5.7000163,
    "name": "All\u00e9es de Nice",
    "road": "Cours Saint-Andr\u00e9"
  },
  "1893324016": {
    "accessible": 1,
    "city": "Le Pont-de-Claix",
    "id": 1893324016,
    "lat": 45.1319365,
    "lon": 5.7002305,
    "name": "All\u00e9es de Nice",
    "road": "Cours Saint-Andr\u00e9"
  },
  "1893358297": {
    "accessible": 1,
    "city": "Le Pont-de-Claix",
    "id": 1893358297,
    "lat": 45.1358031,
    "lon": 5.7015335,
    "name": "Clos Dominique",
    "road": "Cours Saint-Andr\u00e9"
  },
  "1893358309": {
    "accessible": 1,
    "city": "Le Pont-de-Claix",
    "id": 1893358309,
    "lat": 45.1354903,
    "lon": 5.7012989,
    "name": "Clos Dominique",
    "road": "Cours Saint-Andr\u00e9"
  },
  "1893382540": {
    "accessible": 0,
    "city": "Le Pont-de-Claix",
    "id": 1893382540,
    "lat": 45.1380568,
    "lon": 5.7029086,
    "name": "Flottibulle",
    "road": "Avenue G\u00e9n\u00e9ral de Gaulle"
  },
  "1893382542": {
    "accessible": 1,
    "city": "Le Pont-de-Claix",
    "id": 1893382542,
    "lat": 45.1378831,
    "lon": 5.7022314,
    "name": "Flottibulle",
    "road": "Cours Saint-Andr\u00e9"
  },
  "1893382577": {
    "accessible": 1,
    "city": "Le Pont-de-Claix",
    "id": 1893382577,
    "lat": 45.1380225,
    "lon": 5.7018459,
    "name": "Flottibulle",
    "road": ""
  },
  "1893382620": {
    "accessible": 1,
    "city": "Le Pont-de-Claix",
    "id": 1893382620,
    "lat": 45.1378991,
    "lon": 5.7021001,
    "name": "Flottibulle",
    "road": "Cours Saint-Andr\u00e9"
  },
  "1895397341": {
    "accessible": 1,
    "city": "\u00c9chirolles",
    "id": 1895397341,
    "lat": 45.1411751,
    "lon": 5.7033316,
    "name": "\u00c9cole de Musique Jean Wiener",
    "road": "Cours Jean Jaur\u00e8s"
  },
  "1895397406": {
    "accessible": 1,
    "city": "\u00c9chirolles",
    "id": 1895397406,
    "lat": 45.140726,
    "lon": 5.7030518,
    "name": "\u00c9cole de Musique Jean Wiener",
    "road": "Cours Jean Jaur\u00e8s"
  },
  "1895414898": {
    "accessible": 1,
    "city": "\u00c9chirolles",
    "id": 1895414898,
    "lat": 45.1435809,
    "lon": 5.7040142,
    "name": "Ecureuil",
    "road": "Cours Jean Jaur\u00e8s"
  },
  "1895414937": {
    "accessible": 1,
    "city": "\u00c9chirolles",
    "id": 1895414937,
    "lat": 45.1438106,
    "lon": 5.7042244,
    "name": "Ecureuil",
    "road": "Cours Jean Jaur\u00e8s"
  },
  "1895424237": {
    "accessible": 1,
    "city": "\u00c9chirolles",
    "id": 1895424237,
    "lat": 45.1456563,
    "lon": 5.7047159,
    "name": "Bayard",
    "road": "Cours Jean Jaur\u00e8s"
  },
  "1895459407": {
    "accessible": 1,
    "city": "\u00c9chirolles",
    "id": 1895459407,
    "lat": 45.1460373,
    "lon": 5.7043446,
    "name": "Bayard",
    "road": "Avenue Colonel Manh\u00e8s"
  },
  "1895459442": {
    "accessible": 1,
    "city": "\u00c9chirolles",
    "id": 1895459442,
    "lat": 45.1461121,
    "lon": 5.7044308,
    "name": "Bayard",
    "road": "Avenue Colonel Manh\u00e8s"
  },
  "1895459478": {
    "accessible": 1,
    "city": "\u00c9chirolles",
    "id": 1895459478,
    "lat": 45.1464005,
    "lon": 5.7050933,
    "name": "Bayard",
    "road": "Cours Jean Jaur\u00e8s"
  },
  "1896055872": {
    "accessible": 1,
    "city": "\u00c9chirolles",
    "id": 1896055872,
    "lat": 45.1487753,
    "lon": 5.7059054,
    "name": "Vaillant-Couturier",
    "road": "Cours Jean Jaur\u00e8s"
  },
  "1896055873": {
    "accessible": 1,
    "city": "\u00c9chirolles",
    "id": 1896055873,
    "lat": 45.148235,
    "lon": 5.7055824,
    "name": "Vaillant-Couturier",
    "road": "Cours Jean Jaur\u00e8s"
  },
  "1896070859": {
    "accessible": 1,
    "city": "\u00c9chirolles",
    "id": 1896070859,
    "lat": 45.1515044,
    "lon": 5.7066796,
    "name": "Quinzaine",
    "road": "Cours Jean Jaur\u00e8s"
  },
  "1896070872": {
    "accessible": 1,
    "city": "\u00c9chirolles",
    "id": 1896070872,
    "lat": 45.1516541,
    "lon": 5.706874,
    "name": "Quinzaine",
    "road": "Cours Jean Jaur\u00e8s"
  },
  "1896597537": {
    "accessible": 1,
    "city": "\u00c9chirolles",
    "id": 1896597537,
    "lat": 45.1545268,
    "lon": 5.7078372,
    "name": "Ren\u00e9 Thomas",
    "road": "Cours Jean Jaur\u00e8s"
  },
  "1896597558": {
    "accessible": 1,
    "city": "\u00c9chirolles",
    "id": 1896597558,
    "lat": 45.153975,
    "lon": 5.7075132,
    "name": "Ren\u00e9 Thomas",
    "road": "Cours Jean Jaur\u00e8s"
  },
  "1896621359": {
    "accessible": 1,
    "city": "\u00c9chirolles",
    "id": 1896621359,
    "lat": 45.1574155,
    "lon": 5.708683,
    "name": "Viscose",
    "road": "Cours Jean Jaur\u00e8s"
  },
  "1896621366": {
    "accessible": 1,
    "city": "\u00c9chirolles",
    "id": 1896621366,
    "lat": 45.157877,
    "lon": 5.7089962,
    "name": "Viscose",
    "road": "Cours Jean Jaur\u00e8s"
  },
  "1896625852": {
    "accessible": 1,
    "city": "Grenoble",
    "id": 1896625852,
    "lat": 45.1611947,
    "lon": 5.7100769,
    "name": "Le Rondeau",
    "road": "Cours de la Lib\u00e9ration et du G\u00e9n\u00e9ral de Gaulle"
  },
  "1896625868": {
    "accessible": 1,
    "city": "Grenoble",
    "id": 1896625868,
    "lat": 45.1603078,
    "lon": 5.7096527,
    "name": "Le Rondeau",
    "road": "Cours de la Lib\u00e9ration et du G\u00e9n\u00e9ral de Gaulle"
  },
  "1896756272": {
    "accessible": 1,
    "city": "Grenoble",
    "id": 1896756272,
    "lat": 45.1638601,
    "lon": 5.7108483,
    "name": "Stade Lesdigui\u00e8res",
    "road": "Cours de la Lib\u00e9ration et du G\u00e9n\u00e9ral de Gaulle"
  },
  "1896756285": {
    "accessible": 1,
    "city": "Grenoble",
    "id": 1896756285,
    "lat": 45.1638793,
    "lon": 5.7109905,
    "name": "Stade Lesdigui\u00e8res",
    "road": "Cours de la Lib\u00e9ration et du G\u00e9n\u00e9ral de Gaulle"
  },
  "1896756331": {
    "accessible": 1,
    "city": "Grenoble",
    "id": 1896756331,
    "lat": 45.164634,
    "lon": 5.7106817,
    "name": "Stade Lesdigui\u00e8res",
    "road": "Rue Albert Reynier"
  },
  "1896756345": {
    "accessible": 1,
    "city": "Grenoble",
    "id": 1896756345,
    "lat": 45.1643967,
    "lon": 5.7106071,
    "name": "Stade Lesdigui\u00e8res",
    "road": "Rue Albert Reynier"
  },
  "1897930686": {
    "accessible": 1,
    "city": "Fontaine",
    "id": 1897930686,
    "lat": 45.1972993,
    "lon": 5.6722064,
    "name": "La Poya",
    "road": "Boulevard Paul Langevin"
  },
  "1898074614": {
    "accessible": 1,
    "city": "Fontaine",
    "id": 1898074614,
    "lat": 45.1890872,
    "lon": 5.6944772,
    "name": "Louis Maisonnat",
    "road": "Avenue Aristide Briand"
  },
  "1898074628": {
    "accessible": 1,
    "city": "Fontaine",
    "id": 1898074628,
    "lat": 45.1890984,
    "lon": 5.6940984,
    "name": "Louis Maisonnat",
    "road": "Avenue Aristide Briand"
  },
  "1898671429": {
    "accessible": 1,
    "city": "Grenoble",
    "id": 1898671429,
    "lat": 45.1887794,
    "lon": 5.7068639,
    "name": "Berriat - Le Magasin",
    "road": "Cours Berriat"
  },
  "1898683792": {
    "accessible": 1,
    "city": "Grenoble",
    "id": 1898683792,
    "lat": 45.1886808,
    "lon": 5.7058558,
    "name": "Berriat - Le Magasin",
    "road": "Rue Amp\u00e8re"
  },
  "1900626638": {
    "accessible": 0,
    "city": "Grenoble",
    "id": 1900626638,
    "lat": 45.1909656,
    "lon": 5.7154262,
    "name": "Grenoble - Gares",
    "road": "Place de la Gare"
  },
  "1900632623": {
    "accessible": 1,
    "city": "Grenoble",
    "id": 1900632623,
    "lat": 45.1916566,
    "lon": 5.7152004,
    "name": "Grenoble - Gares",
    "road": "Rue \u00c9mile Gueymard"
  },
  "1900674548": {
    "accessible": 1,
    "city": "Grenoble",
    "id": 1900674548,
    "lat": 45.1901536,
    "lon": 5.728229,
    "name": "Hubert Dubedout - Maison du tourisme",
    "road": "Rue Raoul Blanchard"
  },
  "1900686598": {
    "accessible": 1,
    "city": "Grenoble",
    "id": 1900686598,
    "lat": 45.1816551,
    "lon": 5.7317576,
    "name": "Albert 1er de Belgique",
    "road": "Avenue G\u00e9n\u00e9ral Champon"
  },
  "1905719332": {
    "accessible": 1,
    "city": "Grenoble",
    "id": 1905719332,
    "lat": 45.1859008,
    "lon": 5.7172645,
    "name": "Chorier-Condorcet",
    "road": "Rue Nicolas Chorier"
  },
  "1905719334": {
    "accessible": 1,
    "city": "Grenoble",
    "id": 1905719334,
    "lat": 45.1858961,
    "lon": 5.7174214,
    "name": "Chorier-Condorcet",
    "road": "Rue Nicolas Chorier"
  },
  "1905881594": {
    "accessible": 1,
    "city": "Grenoble",
    "id": 1905881594,
    "lat": 45.1689208,
    "lon": 5.7330823,
    "name": "Malherbe",
    "road": "Avenue Malherbe"
  },
  "1905881612": {
    "accessible": 1,
    "city": "Grenoble",
    "id": 1905881612,
    "lat": 45.1694824,
    "lon": 5.7322502,
    "name": "Malherbe",
    "road": "Avenue Marcelin Berthelot"
  },
  "1905881629": {
    "accessible": 1,
    "city": "Grenoble",
    "id": 1905881629,
    "lat": 45.1689716,
    "lon": 5.7329879,
    "name": "Malherbe",
    "road": "Avenue Malherbe"
  },
  "1905961754": {
    "accessible": 1,
    "city": "Grenoble",
    "id": 1905961754,
    "lat": 45.1588845,
    "lon": 5.7321482,
    "name": "Grand'Place",
    "road": ""
  },
  "1905961756": {
    "accessible": 1,
    "city": "Grenoble",
    "id": 1905961756,
    "lat": 45.1592466,
    "lon": 5.7318959,
    "name": "Grand'Place",
    "road": ""
  },
  "1905961757": {
    "accessible": 1,
    "city": "Grenoble",
    "id": 1905961757,
    "lat": 45.1592564,
    "lon": 5.73237,
    "name": "Grand'Place",
    "road": ""
  },
  "1905961758": {
    "accessible": 1,
    "city": "Grenoble",
    "id": 1905961758,
    "lat": 45.1592572,
    "lon": 5.7326295,
    "name": "Grand'Place",
    "road": ""
  },
  "1905961759": {
    "accessible": 1,
    "city": "Grenoble",
    "id": 1905961759,
    "lat": 45.1592507,
    "lon": 5.7321384,
    "name": "Grand'Place",
    "road": ""
  },
  "1905961760": {
    "accessible": 1,
    "city": "Grenoble",
    "id": 1905961760,
    "lat": 45.1588887,
    "lon": 5.7323827,
    "name": "Grand'Place",
    "road": ""
  },
  "1906684830": {
    "accessible": 1,
    "city": "Grenoble",
    "id": 1906684830,
    "lat": 45.1570748,
    "lon": 5.7337304,
    "name": "P\u00f4le Sud - Alpexpo",
    "road": "Avenue d'Innsbruck"
  },
  "1906684838": {
    "accessible": 1,
    "city": "Grenoble",
    "id": 1906684838,
    "lat": 45.1571173,
    "lon": 5.733814,
    "name": "P\u00f4le Sud - Alpexpo",
    "road": "Avenue d'Innsbruck"
  },
  "1906947723": {
    "accessible": 0,
    "city": "Quaix-en-Chartreuse",
    "id": 1906947723,
    "lat": 45.2532054,
    "lon": 5.7174006,
    "name": "Quaix-en-Chartreuse - Place",
    "road": "Route de Saint-\u00c9gr\u00e8ve"
  },
  "1907476119": {
    "accessible": 0,
    "city": "Sarcenas",
    "id": 1907476119,
    "lat": 45.2734494,
    "lon": 5.7585262,
    "name": "Sarcenas - Le Village",
    "road": "D 57"
  },
  "1907476177": {
    "accessible": 0,
    "city": "Sarcenas",
    "id": 1907476177,
    "lat": 45.2761296,
    "lon": 5.7574713,
    "name": "Le Pont du Croz",
    "road": "D 57"
  },
  "1907488644": {
    "accessible": 0,
    "city": "Quaix-en-Chartreuse",
    "id": 1907488644,
    "lat": 45.2529028,
    "lon": 5.7417728,
    "name": "Bas de Mont-Quaix",
    "road": "Route de Sarcenas"
  },
  "1907488666": {
    "accessible": 0,
    "city": "Quaix-en-Chartreuse",
    "id": 1907488666,
    "lat": 45.2557883,
    "lon": 5.7428841,
    "name": "Mont-Quaix",
    "road": "Route de Sarcenas"
  },
  "1907488690": {
    "accessible": 0,
    "city": "Quaix-en-Chartreuse",
    "id": 1907488690,
    "lat": 45.2572514,
    "lon": 5.7461178,
    "name": "La Cime de Mont-Quaix",
    "road": "Route de Sarcenas"
  },
  "1914299431": {
    "accessible": 1,
    "city": "\u00c9chirolles",
    "id": 1914299431,
    "lat": 45.1531069,
    "lon": 5.7184909,
    "name": "\u00c9chirolles - Gare",
    "road": "Rue d'Auvergne"
  },
  "1914299432": {
    "accessible": 1,
    "city": "\u00c9chirolles",
    "id": 1914299432,
    "lat": 45.1531113,
    "lon": 5.7184544,
    "name": "\u00c9chirolles - Gare",
    "road": "Rue d'Auvergne"
  },
  "1916826822": {
    "accessible": 1,
    "city": "\u00c9chirolles",
    "id": 1916826822,
    "lat": 45.1496318,
    "lon": 5.7192603,
    "name": "La Rampe - Centre-Ville",
    "road": "D 269Z"
  },
  "1916856148": {
    "accessible": 1,
    "city": "\u00c9chirolles",
    "id": 1916856148,
    "lat": 45.1446779,
    "lon": 5.7164381,
    "name": "Marie Curie",
    "road": "D 269Z"
  },
  "1916856161": {
    "accessible": 1,
    "city": "\u00c9chirolles",
    "id": 1916856161,
    "lat": 45.1449744,
    "lon": 5.7172609,
    "name": "Marie Curie",
    "road": ""
  },
  "1916864153": {
    "accessible": 1,
    "city": "\u00c9chirolles",
    "id": 1916864153,
    "lat": 45.1422161,
    "lon": 5.7151323,
    "name": "Auguste Delaune",
    "road": "Avenue du G\u00e9n\u00e9ral de Gaulle"
  },
  "1916864159": {
    "accessible": 1,
    "city": "\u00c9chirolles",
    "id": 1916864159,
    "lat": 45.1424685,
    "lon": 5.7151952,
    "name": "Auguste Delaune",
    "road": "D 269Z"
  },
  "1916890652": {
    "accessible": 1,
    "city": "\u00c9chirolles",
    "id": 1916890652,
    "lat": 45.1382685,
    "lon": 5.7127151,
    "name": "Denis Papin",
    "road": "D 269Z"
  },
  "1916890655": {
    "accessible": 1,
    "city": "\u00c9chirolles",
    "id": 1916890655,
    "lat": 45.1388772,
    "lon": 5.7132534,
    "name": "Denis Papin",
    "road": "Avenue du G\u00e9n\u00e9ral de Gaulle"
  },
  "1920356979": {
    "accessible": 1,
    "city": "La Tronche",
    "id": 1920356979,
    "lat": 45.1989938,
    "lon": 5.7496347,
    "name": "Grand Sablon",
    "road": ""
  },
  "1920404362": {
    "accessible": 1,
    "city": "La Tronche",
    "id": 1920404362,
    "lat": 45.1990562,
    "lon": 5.7498299,
    "name": "Grand Sablon",
    "road": ""
  },
  "1920404370": {
    "accessible": 1,
    "city": "La Tronche",
    "id": 1920404370,
    "lat": 45.1988077,
    "lon": 5.7503367,
    "name": "Grand Sablon",
    "road": ""
  },
  "1920404377": {
    "accessible": 1,
    "city": "La Tronche",
    "id": 1920404377,
    "lat": 45.1990308,
    "lon": 5.7498169,
    "name": "Grand Sablon",
    "road": ""
  },
  "1920434156": {
    "accessible": 0,
    "city": "La Tronche",
    "id": 1920434156,
    "lat": 45.2015271,
    "lon": 5.7423105,
    "name": "La Tronche - H\u00f4pital",
    "road": "Avenue des Maquis du Gr\u00e9sivaudan"
  },
  "1920434219": {
    "accessible": 1,
    "city": "La Tronche",
    "id": 1920434219,
    "lat": 45.2015163,
    "lon": 5.7423837,
    "name": "La Tronche - H\u00f4pital",
    "road": "Avenue des Maquis du Gr\u00e9sivaudan"
  },
  "1920507465": {
    "accessible": 1,
    "city": "Grenoble",
    "id": 1920507465,
    "lat": 45.1940551,
    "lon": 5.7319202,
    "name": "Notre-Dame - Mus\u00e9e",
    "road": "Place de Lavalette"
  },
  "1920507473": {
    "accessible": 1,
    "city": "Grenoble",
    "id": 1920507473,
    "lat": 45.1939086,
    "lon": 5.7322151,
    "name": "Notre-Dame - Mus\u00e9e",
    "road": "Place de Lavalette"
  },
  "1939773158": {
    "accessible": 1,
    "city": "Saint-\u00c9gr\u00e8ve",
    "id": 1939773158,
    "lat": 45.2276838,
    "lon": 5.6683852,
    "name": "Vence Ecoparc",
    "road": "Avenue de l'\u00cele Brune"
  },
  "1939985033": {
    "accessible": 0,
    "city": "Le Gua",
    "id": 1939985033,
    "lat": 44.9891283,
    "lon": 5.6218013,
    "name": "La Pierre",
    "road": "D 8"
  },
  "1946785252": {
    "accessible": 0,
    "city": "Proveysieux",
    "id": 1946785252,
    "lat": 45.2792889,
    "lon": 5.7088494,
    "name": "Pomarey Bas",
    "road": ""
  },
  "1950684818": {
    "accessible": 1,
    "city": "Le Pont-de-Claix",
    "id": 1950684818,
    "lat": 45.1229122,
    "lon": 5.6977441,
    "name": "Pont de Claix - Mairie",
    "road": "Avenue du Mar\u00e9chal Juin"
  },
  "1954731826": {
    "accessible": 0,
    "city": "Saint-Martin-le-Vinoux",
    "id": 1954731826,
    "lat": 45.2036403,
    "lon": 5.7168467,
    "name": "Place du Village",
    "road": "Place du Village"
  },
  "1975596886": {
    "accessible": 0,
    "city": "Vif",
    "id": 1975596886,
    "lat": 45.0558849,
    "lon": 5.6700209,
    "name": "Vif Mairie",
    "road": "Rue Antoine et Suzanne Buisson"
  },
  "1978449792": {
    "accessible": 1,
    "city": "Seyssins",
    "id": 1978449792,
    "lat": 45.1463094,
    "lon": 5.6907434,
    "name": "Comboire",
    "road": ""
  },
  "1985750388": {
    "accessible": 0,
    "city": "Grenoble",
    "id": 1985750388,
    "lat": 45.1808937,
    "lon": 5.7225315,
    "name": "Foch - F\u00e9rri\u00e9",
    "road": "Boulevard Mar\u00e9chal Foch"
  },
  "1988234451": {
    "accessible": 1,
    "city": "Grenoble",
    "id": 1988234451,
    "lat": 45.1695789,
    "lon": 5.7231627,
    "name": "Clos d'Or",
    "road": "Rue de Stalingrad"
  },
  "2025433527": {
    "accessible": 1,
    "city": "Grenoble",
    "id": 2025433527,
    "lat": 45.1955674,
    "lon": 5.7301244,
    "name": "Xavier Jouvin",
    "road": "Quai Xavier Jouvin"
  },
  "2028671561": {
    "accessible": 1,
    "city": "Vizille",
    "id": 2028671561,
    "lat": 45.080436,
    "lon": 5.774848,
    "name": "Chantefeuille",
    "road": ""
  },
  "2030794083": {
    "accessible": 1,
    "city": "Vizille",
    "id": 2030794083,
    "lat": 45.0805793,
    "lon": 5.7748695,
    "name": "Chantefeuille",
    "road": ""
  },
  "2030794101": {
    "accessible": 0,
    "city": "Vizille",
    "id": 2030794101,
    "lat": 45.0774636,
    "lon": 5.7685634,
    "name": "Les Forges",
    "road": ""
  },
  "2030794104": {
    "accessible": 0,
    "city": "Vizille",
    "id": 2030794104,
    "lat": 45.0771647,
    "lon": 5.7685564,
    "name": "Les Forges",
    "road": ""
  },
  "2031784209": {
    "accessible": 0,
    "city": "La Tronche",
    "id": 2031784209,
    "lat": 45.2011611,
    "lon": 5.758768,
    "name": "Carronnerie Basse",
    "road": "Boulevard de la Chantourne"
  },
  "2042745906": {
    "accessible": 1,
    "city": "Gi\u00e8res",
    "id": 2042745906,
    "lat": 45.1814421,
    "lon": 5.7815409,
    "name": "Le Sonnant",
    "road": "D 523"
  },
  "2044511131": {
    "accessible": 1,
    "city": "Gi\u00e8res",
    "id": 2044511131,
    "lat": 45.1790112,
    "lon": 5.7810117,
    "name": "Roseraie",
    "road": "Rue du Docteur Vallois"
  },
  "2046031969": {
    "accessible": 1,
    "city": "Grenoble",
    "id": 2046031969,
    "lat": 45.1781762,
    "lon": 5.7454195,
    "name": "Saint-Augustin",
    "road": "Avenue Jeanne d'Arc"
  },
  "2055926052": {
    "accessible": 0,
    "city": "Saint-Martin-d'H\u00e8res",
    "id": 2055926052,
    "lat": 45.1651226,
    "lon": 5.7489199,
    "name": "Paul \u00c9luard",
    "road": "Avenue Marcel Cachin"
  },
  "2065454967": {
    "accessible": 1,
    "city": "Grenoble",
    "id": 2065454967,
    "lat": 45.1789045,
    "lon": 5.7160665,
    "name": "Vallier - Lib\u00e9ration",
    "road": "Cours de la Lib\u00e9ration et du G\u00e9n\u00e9ral de Gaulle"
  },
  "2068724578": {
    "accessible": 1,
    "city": "Grenoble",
    "id": 2068724578,
    "lat": 45.1890811,
    "lon": 5.7254047,
    "name": "Victor Hugo",
    "road": "Place Victor Hugo"
  },
  "2092730830": {
    "accessible": 1,
    "city": "Grenoble",
    "id": 2092730830,
    "lat": 45.1720843,
    "lon": 5.7049889,
    "name": "Anatole France",
    "road": ""
  },
  "20934511": {
    "accessible": 0,
    "city": "Seyssinet-Pariset",
    "id": 20934511,
    "lat": 45.1764206,
    "lon": 5.6879104,
    "name": "Belv\u00e9d\u00e8re",
    "road": "D 106G"
  },
  "20934524": {
    "accessible": 0,
    "city": "Seyssinet-Pariset",
    "id": 20934524,
    "lat": 45.178311,
    "lon": 5.6919005,
    "name": "Murailles",
    "road": "Avenue de la Houille Blanche"
  },
  "2098726480": {
    "accessible": 1,
    "city": "Eybens",
    "id": 2098726480,
    "lat": 45.1483364,
    "lon": 5.7523832,
    "name": "Grange du Ch\u00e2teau",
    "road": ""
  },
  "21264092": {
    "accessible": 1,
    "city": "Grenoble",
    "id": 21264092,
    "lat": 45.1747984,
    "lon": 5.7138265,
    "name": "Alli\u00e9s",
    "road": "Boulevard Roger Salengro"
  },
  "2129717336": {
    "accessible": 0,
    "city": "Seyssins",
    "id": 2129717336,
    "lat": 45.1558233,
    "lon": 5.6808685,
    "name": "Place du Village",
    "road": "D 106"
  },
  "2139228181": {
    "accessible": 0,
    "city": "Sassenage",
    "id": 2139228181,
    "lat": 45.210871,
    "lon": 5.6563768,
    "name": "Blanc Fontaine",
    "road": "Rue Henri Blanc Fontaine"
  },
  "2141563286": {
    "accessible": 1,
    "city": "Grenoble",
    "id": 2141563286,
    "lat": 45.1734895,
    "lon": 5.7180548,
    "name": "March\u00e9 d'Int\u00e9r\u00eat National",
    "road": "Rue des Alli\u00e9s"
  },
  "2148294136": {
    "accessible": 1,
    "city": "Grenoble",
    "id": 2148294136,
    "lat": 45.1779154,
    "lon": 5.7273924,
    "name": "Rue des D\u00e9port\u00e9s",
    "road": "Rue des D\u00e9port\u00e9s du 11 Novembre 1943"
  },
  "2150731509": {
    "accessible": 1,
    "city": "Grenoble",
    "id": 2150731509,
    "lat": 45.1733674,
    "lon": 5.7140098,
    "name": "Alli\u00e9s",
    "road": "Cours de la Lib\u00e9ration et du G\u00e9n\u00e9ral de Gaulle"
  },
  "2161547654": {
    "accessible": 0,
    "city": "Claix",
    "id": 2161547654,
    "lat": 45.147512,
    "lon": 5.6777676,
    "name": "Garlettes",
    "road": "Route de Comboire"
  },
  "21669811": {
    "accessible": 0,
    "city": "Grenoble",
    "id": 21669811,
    "lat": 45.1905739,
    "lon": 5.7245991,
    "name": "Victor Hugo",
    "road": "Rue de Palanka"
  },
  "2169308480": {
    "accessible": 0,
    "city": "Sassenage",
    "id": 2169308480,
    "lat": 45.2106686,
    "lon": 5.6562684,
    "name": "Blanc Fontaine",
    "road": "Rue du Vercors"
  },
  "2194070588": {
    "accessible": 0,
    "city": "Veurey-Voroize",
    "id": 2194070588,
    "lat": 45.272913,
    "lon": 5.6130053,
    "name": "Veurey - Mairie",
    "road": ""
  },
  "2195494692": {
    "accessible": 0,
    "city": "Proveysieux",
    "id": 2195494692,
    "lat": 45.282388,
    "lon": 5.7108718,
    "name": "Pomarey",
    "road": "Route de Proveysieux"
  },
  "2200331252": {
    "accessible": 0,
    "city": "Noyarey",
    "id": 2200331252,
    "lat": 45.2472733,
    "lon": 5.6268696,
    "name": "Noyarey Village",
    "road": ""
  },
  "2241698340": {
    "accessible": 0,
    "city": "La Tronche",
    "id": 2241698340,
    "lat": 45.209329,
    "lon": 5.7424338,
    "name": "Le Rozan",
    "road": "Route de la Chartreuse"
  },
  "2241710642": {
    "accessible": 0,
    "city": "La Tronche",
    "id": 2241710642,
    "lat": 45.2101404,
    "lon": 5.7441706,
    "name": "Saint-Germain",
    "road": "Route de la Chartreuse"
  },
  "2241710644": {
    "accessible": 0,
    "city": "La Tronche",
    "id": 2241710644,
    "lat": 45.2100381,
    "lon": 5.74392,
    "name": "Saint-Germain",
    "road": "Route de la Chartreuse"
  },
  "2241759063": {
    "accessible": 0,
    "city": "Corenc",
    "id": 2241759063,
    "lat": 45.2210108,
    "lon": 5.764465,
    "name": "Providence",
    "road": "Route de la Chartreuse"
  },
  "2241766910": {
    "accessible": 0,
    "city": "Le Sappey-en-Chartreuse",
    "id": 2241766910,
    "lat": 45.2492891,
    "lon": 5.7654361,
    "name": "Saint-Eynard",
    "road": "D 512"
  },
  "2258516538": {
    "accessible": 0,
    "city": "Saint-\u00c9gr\u00e8ve",
    "id": 2258516538,
    "lat": 45.2401175,
    "lon": 5.6728397,
    "name": "Les Bonnais",
    "road": "Route de Lyon"
  },
  "2258516583": {
    "accessible": 1,
    "city": "Saint-Martin-le-Vinoux",
    "id": 2258516583,
    "lat": 45.2082446,
    "lon": 5.7068145,
    "name": "Saint-Martin-le-Vinoux - H\u00f4tel de Ville",
    "road": "Rue Conrad Kilian"
  },
  "2258635530": {
    "accessible": 1,
    "city": "Grenoble",
    "id": 2258635530,
    "lat": 45.1744866,
    "lon": 5.7140776,
    "name": "Alli\u00e9s",
    "road": "Rue Anatole France"
  },
  "2274860447": {
    "accessible": 0,
    "city": "Noyarey",
    "id": 2274860447,
    "lat": 45.2500536,
    "lon": 5.6315139,
    "name": "Le Ruisset",
    "road": "Avenue Saint-Jean"
  },
  "2274860459": {
    "accessible": 1,
    "city": "Saint-\u00c9gr\u00e8ve",
    "id": 2274860459,
    "lat": 45.2274804,
    "lon": 5.6685657,
    "name": "Vence Ecoparc",
    "road": "Avenue de l'\u00cele Brune"
  },
  "2275183284": {
    "accessible": 1,
    "city": "Sassenage",
    "id": 2275183284,
    "lat": 45.2076333,
    "lon": 5.680282,
    "name": "Maladi\u00e8re",
    "road": "Chemin de Chamechaude"
  },
  "2282420756": {
    "accessible": 0,
    "city": "Claix",
    "id": 2282420756,
    "lat": 45.1168529,
    "lon": 5.6734171,
    "name": "Grands Champs",
    "road": "Rue du 11 Novembre"
  },
  "2282420811": {
    "accessible": 0,
    "city": "Claix",
    "id": 2282420811,
    "lat": 45.1101332,
    "lon": 5.6655181,
    "name": "La Chateraie",
    "road": ""
  },
  "2282420997": {
    "accessible": 0,
    "city": "Claix",
    "id": 2282420997,
    "lat": 45.1180426,
    "lon": 5.6730565,
    "name": "Les \u00c9glantiers",
    "road": "Rue du 11 Novembre"
  },
  "2283127486": {
    "accessible": 0,
    "city": "Miribel-Lanch\u00e2tre",
    "id": 2283127486,
    "lat": 44.9806806,
    "lon": 5.6228674,
    "name": "Bayanne",
    "road": "D 8"
  },
  "2283127488": {
    "accessible": 0,
    "city": "Varces",
    "id": 2283127488,
    "lat": 45.0850011,
    "lon": 5.6670955,
    "name": "Chambord",
    "road": "Route de Grenoble"
  },
  "2283127491": {
    "accessible": 0,
    "city": "Varces",
    "id": 2283127491,
    "lat": 45.0852132,
    "lon": 5.6672211,
    "name": "Chambord",
    "road": "Route de Grenoble"
  },
  "2283127534": {
    "accessible": 0,
    "city": "Varces-Alli\u00e8res-et-Risset",
    "id": 2283127534,
    "lat": 45.0893048,
    "lon": 5.6754756,
    "name": "Les Platanes",
    "road": "Rue de Mazeti\u00e8re"
  },
  "2283127552": {
    "accessible": 0,
    "city": "Saint-Paul-de-Varces",
    "id": 2283127552,
    "lat": 45.0716911,
    "lon": 5.6429159,
    "name": "Saint-Paul-de-Varces - Place",
    "road": ""
  },
  "2284787591": {
    "accessible": 0,
    "city": "Venon",
    "id": 2284787591,
    "lat": 45.1730347,
    "lon": 5.7982664,
    "name": "La Serrali\u00e8re",
    "road": "Route de Venon"
  },
  "2284787596": {
    "accessible": 0,
    "city": "Venon",
    "id": 2284787596,
    "lat": 45.1741168,
    "lon": 5.8026441,
    "name": "La Ville",
    "road": "Route de Venon"
  },
  "2284787601": {
    "accessible": 0,
    "city": "Venon",
    "id": 2284787601,
    "lat": 45.1726493,
    "lon": 5.8104741,
    "name": "Le Perroud",
    "road": "D 164"
  },
  "2284787622": {
    "accessible": 0,
    "city": "Grenoble",
    "id": 2284787622,
    "lat": 45.1950603,
    "lon": 5.726084,
    "name": "Mus\u00e9e Dauphinois",
    "road": "Rue Maurice Gignoux"
  },
  "2287025664": {
    "accessible": 0,
    "city": "Corenc",
    "id": 2287025664,
    "lat": 45.2273835,
    "lon": 5.7587901,
    "name": "Batonni\u00e8re",
    "road": "Route de la Chartreuse"
  },
  "2287025665": {
    "accessible": 0,
    "city": "Corenc",
    "id": 2287025665,
    "lat": 45.2131999,
    "lon": 5.7524052,
    "name": "Charles Pajon",
    "road": "Chemin Charles Pajon"
  },
  "2287025674": {
    "accessible": 0,
    "city": "Corenc",
    "id": 2287025674,
    "lat": 45.2272794,
    "lon": 5.7657569,
    "name": "La Garenne",
    "road": "Route de la Chartreuse"
  },
  "2287025678": {
    "accessible": 0,
    "city": "Corenc",
    "id": 2287025678,
    "lat": 45.2110423,
    "lon": 5.7503456,
    "name": "Mairie Condamine",
    "road": "Avenue de la Condamine"
  },
  "2287115278": {
    "accessible": 0,
    "city": "Meylan",
    "id": 2287115278,
    "lat": 45.2202438,
    "lon": 5.7800647,
    "name": "Champlars",
    "road": "Chemin de l'\u00c9glise"
  },
  "2287115283": {
    "accessible": 0,
    "city": "Meylan",
    "id": 2287115283,
    "lat": 45.2260204,
    "lon": 5.7842055,
    "name": "Croix de Cibeins",
    "road": "Chemin de Rochasson"
  },
  "2287115284": {
    "accessible": 0,
    "city": "Meylan",
    "id": 2287115284,
    "lat": 45.2235378,
    "lon": 5.7817435,
    "name": "Croix des Rameaux",
    "road": "Chemin de l'\u00c9glise"
  },
  "2287115290": {
    "accessible": 0,
    "city": "Meylan",
    "id": 2287115290,
    "lat": 45.2263539,
    "lon": 5.79111,
    "name": "La Treille",
    "road": "Chemin de la Chicane"
  },
  "2287115294": {
    "accessible": 0,
    "city": "Meylan",
    "id": 2287115294,
    "lat": 45.2302193,
    "lon": 5.7876015,
    "name": "Pr\u00e9 Catlan",
    "road": "Chemin du Boutet"
  },
  "2287115295": {
    "accessible": 0,
    "city": "Meylan",
    "id": 2287115295,
    "lat": 45.2285377,
    "lon": 5.78915,
    "name": "Saint-Victor",
    "road": "Chemin du Boutet"
  },
  "2299463674": {
    "accessible": 1,
    "city": "Saint-Ismier",
    "id": 2299463674,
    "lat": 45.2248212,
    "lon": 5.8377072,
    "name": "Bois Fran\u00e7ais",
    "road": ""
  },
  "2299999840": {
    "accessible": 1,
    "city": "Grenoble",
    "id": 2299999840,
    "lat": 45.1690189,
    "lon": 5.7444764,
    "name": "L\u00e9on Jouhaux",
    "road": "Rue L\u00e9on Jouhaux"
  },
  "2306128518": {
    "accessible": 1,
    "city": "Seyssins",
    "id": 2306128518,
    "lat": 45.1546493,
    "lon": 5.689502,
    "name": "Le Hameau des Chaumi\u00e8res",
    "road": "Rue des Ciments"
  },
  "2400420974": {
    "accessible": 0,
    "city": "Bri\u00e9-et-Angonnes",
    "id": 2400420974,
    "lat": 45.1152527,
    "lon": 5.7840406,
    "name": "Mont Rolland",
    "road": "Route Napol\u00e9on"
  },
  "2400420977": {
    "accessible": 0,
    "city": "Bri\u00e9-et-Angonnes",
    "id": 2400420977,
    "lat": 45.1153846,
    "lon": 5.7839766,
    "name": "Mont Rolland",
    "road": "Route Napol\u00e9on"
  },
  "2431368763": {
    "accessible": 0,
    "city": "Meylan",
    "id": 2431368763,
    "lat": 45.218782,
    "lon": 5.7831774,
    "name": "B\u00e9riv\u00e8re",
    "road": "Avenue de Chartreuse"
  },
  "2431368764": {
    "accessible": 0,
    "city": "Meylan",
    "id": 2431368764,
    "lat": 45.2178532,
    "lon": 5.7798564,
    "name": "Hauts de Meylan",
    "road": "Avenue de Chartreuse"
  },
  "2431368765": {
    "accessible": 0,
    "city": "Meylan",
    "id": 2431368765,
    "lat": 45.2179067,
    "lon": 5.7798029,
    "name": "Hauts de Meylan",
    "road": "Avenue de Chartreuse"
  },
  "2431368766": {
    "accessible": 0,
    "city": "Meylan",
    "id": 2431368766,
    "lat": 45.2179252,
    "lon": 5.7795697,
    "name": "Hauts de Meylan",
    "road": "Avenue de Chartreuse"
  },
  "2431368767": {
    "accessible": 0,
    "city": "Meylan",
    "id": 2431368767,
    "lat": 45.2193854,
    "lon": 5.7859541,
    "name": "Saint-Mury",
    "road": "Avenue de Chartreuse"
  },
  "249842482": {
    "accessible": 0,
    "city": "Vaulnaveys-le-Haut",
    "id": 249842482,
    "lat": 45.1309164,
    "lon": 5.8190117,
    "name": "Les Alberges",
    "road": ""
  },
  "250529114": {
    "accessible": 1,
    "city": "Saint-Martin-d'H\u00e8res",
    "id": 250529114,
    "lat": 45.1794122,
    "lon": 5.7551694,
    "name": "\u00c9douard Vaillant",
    "road": "Place Lucie Aubrac"
  },
  "2514234434": {
    "accessible": 0,
    "city": "Le Gua",
    "id": 2514234434,
    "lat": 44.9903499,
    "lon": 5.595001,
    "name": "Col de l'Arzelier",
    "road": "D 8b"
  },
  "256755858": {
    "accessible": 1,
    "city": "Saint-Martin-d'H\u00e8res",
    "id": 256755858,
    "lat": 45.175131,
    "lon": 5.7572846,
    "name": "Parc Jo Blanchon",
    "road": "Parvis Central"
  },
  "257198085": {
    "accessible": 1,
    "city": "Seyssinet-Pariset",
    "id": 257198085,
    "lat": 45.1802059,
    "lon": 5.6964593,
    "name": "Seyssinet Pariset - H\u00f4tel de Ville",
    "road": "Boulevard de l'Europe"
  },
  "257448906": {
    "accessible": 0,
    "city": "Vizille",
    "id": 257448906,
    "lat": 45.0759563,
    "lon": 5.7742044,
    "name": "Tunnel Ch\u00e2teau",
    "road": "Route d'Uriage"
  },
  "257448984": {
    "accessible": 0,
    "city": "Vaulnaveys-le-Bas",
    "id": 257448984,
    "lat": 45.0938442,
    "lon": 5.7932338,
    "name": "Le Pl\u00e2tre",
    "road": "Avenue des Vaulnaveys"
  },
  "258670908": {
    "accessible": 0,
    "city": "Corenc",
    "id": 258670908,
    "lat": 45.2341715,
    "lon": 5.7511126,
    "name": "Col de Vence",
    "road": "Route de la Chartreuse"
  },
  "258682752": {
    "accessible": 0,
    "city": "Le Sappey-en-Chartreuse",
    "id": 258682752,
    "lat": 45.2546862,
    "lon": 5.771069,
    "name": "La Gouillat",
    "road": "D 512"
  },
  "258689886": {
    "accessible": 0,
    "city": "Grenoble",
    "id": 258689886,
    "lat": 45.1942185,
    "lon": 5.7252469,
    "name": "Maurice Gignoux",
    "road": "Rue Maurice Gignoux"
  },
  "2594139005": {
    "accessible": 0,
    "city": "Bri\u00e9-et-Angonnes",
    "id": 2594139005,
    "lat": 45.110779,
    "lon": 5.7870827,
    "name": "Bri\u00e9-et-Angonnes - \u00c9glise",
    "road": "Route Napol\u00e9on"
  },
  "2594139020": {
    "accessible": 0,
    "city": "Bresson",
    "id": 2594139020,
    "lat": 45.140913,
    "lon": 5.7499506,
    "name": "Lagay",
    "road": "Avenue de Bresson"
  },
  "2594139042": {
    "accessible": 0,
    "city": "Bri\u00e9-et-Angonnes",
    "id": 2594139042,
    "lat": 45.1360987,
    "lon": 5.770394,
    "name": "Tavernolles",
    "road": ""
  },
  "259810384": {
    "accessible": 1,
    "city": "Saint-Martin-d'H\u00e8res",
    "id": 259810384,
    "lat": 45.1844865,
    "lon": 5.7542885,
    "name": "Maison Communale",
    "road": "Place du Conseil National de la R\u00e9sistance"
  },
  "259956808": {
    "accessible": 1,
    "city": "Grenoble",
    "id": 259956808,
    "lat": 45.1789609,
    "lon": 5.7318393,
    "name": "Mounier",
    "road": "Avenue Marcelin Berthelot"
  },
  "259956811": {
    "accessible": 1,
    "city": "Grenoble",
    "id": 259956811,
    "lat": 45.173497,
    "lon": 5.7320281,
    "name": "MC2 - Maison de la Culture",
    "road": "Avenue Marcelin Berthelot"
  },
  "2603681680": {
    "accessible": 0,
    "city": "Gi\u00e8res",
    "id": 2603681680,
    "lat": 45.1810401,
    "lon": 5.7884114,
    "name": "Edelweiss",
    "road": "Avenue d'Uriage"
  },
  "2604977130": {
    "accessible": 1,
    "city": "Grenoble",
    "id": 2604977130,
    "lat": 45.1738461,
    "lon": 5.7142882,
    "name": "Alli\u00e9s",
    "road": "Cours de la Lib\u00e9ration et du G\u00e9n\u00e9ral de Gaulle"
  },
  "2604977131": {
    "accessible": 1,
    "city": "Grenoble",
    "id": 2604977131,
    "lat": 45.1738522,
    "lon": 5.7142421,
    "name": "Alli\u00e9s",
    "road": "Cours de la Lib\u00e9ration et du G\u00e9n\u00e9ral de Gaulle"
  },
  "2604977132": {
    "accessible": 1,
    "city": "Grenoble",
    "id": 2604977132,
    "lat": 45.1890337,
    "lon": 5.7194129,
    "name": "Alsace - Lorraine",
    "road": "Cours Jean Jaur\u00e8s"
  },
  "2604977133": {
    "accessible": 1,
    "city": "Grenoble",
    "id": 2604977133,
    "lat": 45.1890451,
    "lon": 5.7193657,
    "name": "Alsace - Lorraine",
    "road": "Cours Jean Jaur\u00e8s"
  },
  "2604977134": {
    "accessible": 1,
    "city": "Grenoble",
    "id": 2604977134,
    "lat": 45.1848862,
    "lon": 5.7180065,
    "name": "Condorcet",
    "road": "Cours Jean Jaur\u00e8s"
  },
  "2604977135": {
    "accessible": 1,
    "city": "Grenoble",
    "id": 2604977135,
    "lat": 45.1848934,
    "lon": 5.717968,
    "name": "Condorcet",
    "road": "Cours Jean Jaur\u00e8s"
  },
  "2604977138": {
    "accessible": 1,
    "city": "Grenoble",
    "id": 2604977138,
    "lat": 45.1693325,
    "lon": 5.7127707,
    "name": "Louise Michel",
    "road": "Cours de la Lib\u00e9ration et du G\u00e9n\u00e9ral de Gaulle"
  },
  "2604977143": {
    "accessible": 1,
    "city": "Grenoble",
    "id": 2604977143,
    "lat": 45.1693387,
    "lon": 5.7127319,
    "name": "Louise Michel",
    "road": "Cours de la Lib\u00e9ration et du G\u00e9n\u00e9ral de Gaulle"
  },
  "2604977147": {
    "accessible": 1,
    "city": "Grenoble",
    "id": 2604977147,
    "lat": 45.1797061,
    "lon": 5.716268,
    "name": "Vallier - Lib\u00e9ration",
    "road": "Cours de la Lib\u00e9ration et du G\u00e9n\u00e9ral de Gaulle"
  },
  "2604977148": {
    "accessible": 1,
    "city": "Grenoble",
    "id": 2604977148,
    "lat": 45.1797123,
    "lon": 5.7162106,
    "name": "Vallier - Lib\u00e9ration",
    "road": "Cours de la Lib\u00e9ration et du G\u00e9n\u00e9ral de Gaulle"
  },
  "262721766": {
    "accessible": 0,
    "city": "Venon",
    "id": 262721766,
    "lat": 45.1752249,
    "lon": 5.794964,
    "name": "La Faurie",
    "road": ""
  },
  "26361365": {
    "accessible": 0,
    "city": "Claix",
    "id": 26361365,
    "lat": 45.1452875,
    "lon": 5.6768214,
    "name": "Cimeti\u00e8re des Garlettes",
    "road": "Route de Comboire"
  },
  "26514427": {
    "accessible": 1,
    "city": "Saint-Martin-d'H\u00e8res",
    "id": 26514427,
    "lat": 45.1868233,
    "lon": 5.7565727,
    "name": "Neyrpic - Belledonne",
    "road": "Avenue Gabriel P\u00e9ri"
  },
  "26514464": {
    "accessible": 1,
    "city": "Saint-Martin-d'H\u00e8res",
    "id": 26514464,
    "lat": 45.1910807,
    "lon": 5.7587284,
    "name": "Hector Berlioz - Universit\u00e9s",
    "road": "Avenue Louis Weil"
  },
  "26514598": {
    "accessible": 1,
    "city": "Grenoble",
    "id": 26514598,
    "lat": 45.1882626,
    "lon": 5.7315163,
    "name": "Verdun-Pr\u00e9fecture",
    "road": ""
  },
  "2655663400": {
    "accessible": 0,
    "city": "Grenoble",
    "id": 2655663400,
    "lat": 45.202234,
    "lon": 5.7043764,
    "name": "CEA - Cambridge",
    "road": "Avenue des Martyrs"
  },
  "2655663401": {
    "accessible": 0,
    "city": "Grenoble",
    "id": 2655663401,
    "lat": 45.2026565,
    "lon": 5.7038695,
    "name": "CEA - Cambridge",
    "road": "Avenue des Martyrs"
  },
  "26561617": {
    "accessible": 1,
    "city": "Grenoble",
    "id": 26561617,
    "lat": 45.1901303,
    "lon": 5.7150797,
    "name": "Grenoble - Gares",
    "road": "Place de la Gare"
  },
  "26562299": {
    "accessible": 1,
    "city": "Grenoble",
    "id": 26562299,
    "lat": 45.197252,
    "lon": 5.7367666,
    "name": "\u00cele Verte",
    "road": "Place du Docteur Girard"
  },
  "26562305": {
    "accessible": 1,
    "city": "La Tronche",
    "id": 26562305,
    "lat": 45.2003255,
    "lon": 5.7455409,
    "name": "Michallon",
    "road": "Chemin Duhamel"
  },
  "26563271": {
    "accessible": 1,
    "city": "Saint-Martin-d'H\u00e8res",
    "id": 26563271,
    "lat": 45.192282,
    "lon": 5.7578672,
    "name": "Les Taill\u00e9es - Universit\u00e9s",
    "road": "Rue de la Houille Blanche"
  },
  "26563275": {
    "accessible": 1,
    "city": "Saint-Martin-d'H\u00e8res",
    "id": 26563275,
    "lat": 45.1923179,
    "lon": 5.7645939,
    "name": "Gabriel Faur\u00e9",
    "road": "Avenue Centrale"
  },
  "26563282": {
    "accessible": 1,
    "city": "Gi\u00e8res",
    "id": 26563282,
    "lat": 45.1923234,
    "lon": 5.770957,
    "name": "Biblioth\u00e8ques Universitaires",
    "road": "Avenue Centrale"
  },
  "26681230": {
    "accessible": 0,
    "city": "Bri\u00e9-et-Angonnes",
    "id": 26681230,
    "lat": 45.1177795,
    "lon": 5.7828135,
    "name": "L'Olympe",
    "road": "Route Napol\u00e9on"
  },
  "26681292": {
    "accessible": 0,
    "city": "Montchaboud",
    "id": 26681292,
    "lat": 45.091715,
    "lon": 5.7766244,
    "name": "Montchaboud Croisement",
    "road": "D 5A"
  },
  "26681295": {
    "accessible": 0,
    "city": "Vizille",
    "id": 26681295,
    "lat": 45.0915686,
    "lon": 5.7769179,
    "name": "Montchaboud Croisement",
    "road": "Avenue Gabriel P\u00e9ri (Route Napol\u00e9on)"
  },
  "2698340261": {
    "accessible": 1,
    "city": "Grenoble",
    "id": 2698340261,
    "lat": 45.1988381,
    "lon": 5.7169072,
    "name": "Casamaures Village",
    "road": "N 481"
  },
  "2698340273": {
    "accessible": 1,
    "city": "Grenoble",
    "id": 2698340273,
    "lat": 45.1988541,
    "lon": 5.7168682,
    "name": "Casamaures Village",
    "road": "N 481"
  },
  "2698340281": {
    "accessible": 1,
    "city": "Grenoble",
    "id": 2698340281,
    "lat": 45.1955695,
    "lon": 5.7169342,
    "name": "Esplanade Centre",
    "road": "N 481"
  },
  "2698340299": {
    "accessible": 1,
    "city": "Grenoble",
    "id": 2698340299,
    "lat": 45.1955822,
    "lon": 5.7169673,
    "name": "Esplanade Centre",
    "road": "N 481"
  },
  "2698340312": {
    "accessible": 1,
    "city": "Saint-Martin-le-Vinoux",
    "id": 2698340312,
    "lat": 45.2077621,
    "lon": 5.7067388,
    "name": "Saint-Martin-le-Vinoux - H\u00f4tel de Ville",
    "road": ""
  },
  "2698340334": {
    "accessible": 1,
    "city": "Saint-Martin-le-Vinoux",
    "id": 2698340334,
    "lat": 45.2077743,
    "lon": 5.7067792,
    "name": "Saint-Martin-le-Vinoux - H\u00f4tel de Ville",
    "road": ""
  },
  "270132156": {
    "accessible": 0,
    "city": "Venon",
    "id": 270132156,
    "lat": 45.1716836,
    "lon": 5.804824,
    "name": "Venon Mairie",
    "road": "L'Adret"
  },
  "270165556": {
    "accessible": 1,
    "city": "Fontaine",
    "id": 270165556,
    "lat": 45.1970418,
    "lon": 5.6725881,
    "name": "La Poya",
    "road": "Boulevard Paul Langevin"
  },
  "277364392": {
    "accessible": 0,
    "city": "Meylan",
    "id": 277364392,
    "lat": 45.2071269,
    "lon": 5.7582983,
    "name": "Champ Rochas",
    "road": "Rue Champ Rochas"
  },
  "2787443052": {
    "accessible": 0,
    "city": "Grenoble",
    "id": 2787443052,
    "lat": 45.2057764,
    "lon": 5.6995735,
    "name": "Presqu'\u00eele",
    "road": "Avenue des Martyrs"
  },
  "2787443056": {
    "accessible": 1,
    "city": "Grenoble",
    "id": 2787443056,
    "lat": 45.2057943,
    "lon": 5.6996788,
    "name": "Presqu'\u00eele",
    "road": "Avenue des Martyrs"
  },